{"type":"FeatureCollection","features":[{"type":"Feature","geometry":{"type":"Point","coordinates":[-51.219473,-30.149017]},"properties":{"stop_id":"5776","stop_name":"Carijos 215 ","stop_code":null}},{"type":"Feature","geometry":{"type":"Point","coordinates":[-51.217878,-30.14917]},"properties":{"stop_id":"64","stop_name":"Carijos 385 ","stop_code":null}},{"type":"Feature","geometry":{"type":"Point","coordinates":[-51.248116,-30.102056]},"properties":{"stop_id":"6949","stop_name":"Cassio De Medeiros 760 ","stop_code":null}},{"type":"Feature","geometry":{"type":"Point","coordinates":[-51.210728,-30.012441]},"properties":{"stop_id":"3523","stop_name":"Parque Al 29 Dmae","stop_code":null}},{"type":"Feature","geometry":{"type":"Point","coordinates":[-51.142114,-30.037089]},"properties":{"stop_id":"3289","stop_name":"Ibanez Andre Pitthan Souza Al 395 ","stop_code":null}},{"type":"Feature","geometry":{"type":"Point","coordinates":[-51.186792,-30.052641]},"properties":{"stop_id":"2059","stop_name":"Guilherme Alves Al 574 ","stop_code":null}},{"type":"Feature","geometry":{"type":"Point","coordinates":[-51.115127,-30.105496]},"properties":{"stop_id":"6948","stop_name":"Joao De Oliveira Remiao 4086 09-A","stop_code":null}},{"type":"Feature","geometry":{"type":"Point","coordinates":[-51.131382,-29.990284]},"properties":{"stop_id":"6582","stop_name":"Fabio Carneiro Lima 505 ","stop_code":null}},{"type":"Feature","geometry":{"type":"Point","coordinates":[-51.130979,-29.990336]},"properties":{"stop_id":"6583","stop_name":"Fabio Carneiro Lima 500 ","stop_code":null}},{"type":"Feature","geometry":{"type":"Point","coordinates":[-51.116171,-30.075467]},"properties":{"stop_id":"4631","stop_name":"Campus Ufrgs - Agronomia Sn Entrada Iph","stop_code":null}},{"type":"Feature","geometry":{"type":"Point","coordinates":[-51.249726,-30.107775]},"properties":{"stop_id":"550","stop_name":"Jose Gomes 390 ","stop_code":null}},{"type":"Feature","geometry":{"type":"Point","coordinates":[-51.19447,-30.078601]},"properties":{"stop_id":"1890","stop_name":"Santiago Dantas Df 4 ","stop_code":null}},{"type":"Feature","geometry":{"type":"Point","coordinates":[-51.180878,-29.978908]},"properties":{"stop_id":"6946","stop_name":"Ernesto Neugebauer Df 1820/Ef Trens ","stop_code":null}},{"type":"Feature","geometry":{"type":"Point","coordinates":[-51.199033,-30.078367]},"properties":{"stop_id":"1870","stop_name":"Prof Oscar Pereira 3290 ","stop_code":null}},{"type":"Feature","geometry":{"type":"Point","coordinates":[-51.187542,-29.987048]},"properties":{"stop_id":"6947","stop_name":"Irmao Felix Roberto (Robertao) 35 ","stop_code":null}},{"type":"Feature","geometry":{"type":"Point","coordinates":[-51.129702,-29.982685]},"properties":{"stop_id":"4274","stop_name":"Vinte Um De Abril 1143 ","stop_code":null}},{"type":"Feature","geometry":{"type":"Point","coordinates":[-51.168123,-30.004774]},"properties":{"stop_id":"3824","stop_name":"Carneiro Da Fontoura 736 ","stop_code":null}},{"type":"Feature","geometry":{"type":"Point","coordinates":[-51.214205,-30.085946]},"properties":{"stop_id":"6945","stop_name":"Dr Ney Cabral Df 104 ","stop_code":null}},{"type":"Feature","geometry":{"type":"Point","coordinates":[-51.194264,-29.987629]},"properties":{"stop_id":"3677","stop_name":"A J Renner Sn Df Posto Shell","stop_code":null}},{"type":"Feature","geometry":{"type":"Point","coordinates":[-51.196427,-30.086883]},"properties":{"stop_id":"1278","stop_name":"Alpes Df 369 ","stop_code":null}},{"type":"Feature","geometry":{"type":"Point","coordinates":[-51.195486,-29.991412]},"properties":{"stop_id":"3673","stop_name":"A J Renner 595 ","stop_code":null}},{"type":"Feature","geometry":{"type":"Point","coordinates":[-51.175768,-30.18004]},"properties":{"stop_id":"243","stop_name":"Juca Batista 7424 ","stop_code":null}},{"type":"Feature","geometry":{"type":"Point","coordinates":[-51.090668,-30.024086]},"properties":{"stop_id":"6603","stop_name":"Antonio Severino Df 1970 ","stop_code":null}},{"type":"Feature","geometry":{"type":"Point","coordinates":[-51.214034,-30.079725]},"properties":{"stop_id":"1673","stop_name":"Octavio De Souza Df 40 ","stop_code":null}},{"type":"Feature","geometry":{"type":"Point","coordinates":[-51.213959,-30.079764]},"properties":{"stop_id":"1674","stop_name":"Octavio De Souza 40 ","stop_code":null}},{"type":"Feature","geometry":{"type":"Point","coordinates":[-51.203984,-30.129657]},"properties":{"stop_id":"1127","stop_name":"Rio Grande 212 ","stop_code":null}},{"type":"Feature","geometry":{"type":"Point","coordinates":[-51.107849,-30.013311]},"properties":{"stop_id":"4803","stop_name":"Delmar Rocha Barbosa Al 336 ","stop_code":null}},{"type":"Feature","geometry":{"type":"Point","coordinates":[-51.109618,-30.020842]},"properties":{"stop_id":"6683","stop_name":"Juscelino Kubitschek De Oliveira Al 1030 ","stop_code":null}},{"type":"Feature","geometry":{"type":"Point","coordinates":[-51.200667,-30.080504]},"properties":{"stop_id":"1741","stop_name":"Prof Carvalho Freitas 1160 ","stop_code":null}},{"type":"Feature","geometry":{"type":"Point","coordinates":[-51.170412,-30.070609]},"properties":{"stop_id":"6944","stop_name":"Dona Iris S/Nº ","stop_code":null}},{"type":"Feature","geometry":{"type":"Point","coordinates":[-51.196592,-30.184971]},"properties":{"stop_id":"91","stop_name":"Retiro Da Ponta Grossa Df 2326 ","stop_code":null}},{"type":"Feature","geometry":{"type":"Point","coordinates":[-51.196157,-30.184865]},"properties":{"stop_id":"92","stop_name":"Retiro Da Ponta Grossa 2316 ","stop_code":null}},{"type":"Feature","geometry":{"type":"Point","coordinates":[-51.193627,-30.183719]},"properties":{"stop_id":"100","stop_name":"Retiro Da Ponta Grossa Df 1750 ","stop_code":null}},{"type":"Feature","geometry":{"type":"Point","coordinates":[-51.19327,-30.183646]},"properties":{"stop_id":"99","stop_name":"Retiro Da Ponta Grossa 1700/1710 ","stop_code":null}},{"type":"Feature","geometry":{"type":"Point","coordinates":[-51.190445,-30.182359]},"properties":{"stop_id":"104","stop_name":"Retiro Da Ponta Grossa Df 1400 ","stop_code":null}},{"type":"Feature","geometry":{"type":"Point","coordinates":[-51.190415,-30.182427]},"properties":{"stop_id":"103","stop_name":"Retiro Da Ponta Grossa 1400 ","stop_code":null}},{"type":"Feature","geometry":{"type":"Point","coordinates":[-51.188416,-30.181484]},"properties":{"stop_id":"106","stop_name":"Retiro Da Ponta Grossa Df 1220 ","stop_code":null}},{"type":"Feature","geometry":{"type":"Point","coordinates":[-51.188523,-30.181611]},"properties":{"stop_id":"5399","stop_name":"Retiro Da Ponta Grossa 1220 ","stop_code":null}},{"type":"Feature","geometry":{"type":"Point","coordinates":[-51.184088,-30.180033]},"properties":{"stop_id":"132","stop_name":"Retiro Da Ponta Grossa 740 ","stop_code":null}},{"type":"Feature","geometry":{"type":"Point","coordinates":[-51.180317,-30.179357]},"properties":{"stop_id":"5760","stop_name":"Retiro Da Ponta Grossa 370 ","stop_code":null}},{"type":"Feature","geometry":{"type":"Point","coordinates":[-51.180339,-30.179287]},"properties":{"stop_id":"241","stop_name":"Retiro Da Ponta Grossa 427 ","stop_code":null}},{"type":"Feature","geometry":{"type":"Point","coordinates":[-51.176528,-30.178847]},"properties":{"stop_id":"5833","stop_name":"Retiro Da Ponta Grossa 84 ","stop_code":null}},{"type":"Feature","geometry":{"type":"Point","coordinates":[-51.209868,-30.184903]},"properties":{"stop_id":"71","stop_name":"Retiro Da Ponta Grossa 3605 ","stop_code":null}},{"type":"Feature","geometry":{"type":"Point","coordinates":[-51.134413,-30.03866]},"properties":{"stop_id":"3381","stop_name":"Emilio Schlabitz Neto Al 119 Praca","stop_code":null}},{"type":"Feature","geometry":{"type":"Point","coordinates":[-51.134483,-30.038614]},"properties":{"stop_id":"3382","stop_name":"Emilio Schlabitz Neto Df 119 Praca","stop_code":null}},{"type":"Feature","geometry":{"type":"Point","coordinates":[-51.114384,-29.985392]},"properties":{"stop_id":"4852","stop_name":"Senhor Do Bom Fim 1093 ","stop_code":null}},{"type":"Feature","geometry":{"type":"Point","coordinates":[-51.114631,-29.985379]},"properties":{"stop_id":"4853","stop_name":"Senhor Do Bom Fim 1050 ","stop_code":null}},{"type":"Feature","geometry":{"type":"Point","coordinates":[-51.168885,-30.073468]},"properties":{"stop_id":"2683","stop_name":"Dona Firmina 1320 ","stop_code":null}},{"type":"Feature","geometry":{"type":"Point","coordinates":[-51.169897,-30.073849]},"properties":{"stop_id":"2662","stop_name":"Borborema Df 795 ","stop_code":null}},{"type":"Feature","geometry":{"type":"Point","coordinates":[-51.081418,-30.240283]},"properties":{"stop_id":"4331","stop_name":"Otaviano Jose Pinto 390 Df Mercado Extremo-sul","stop_code":null}},{"type":"Feature","geometry":{"type":"Point","coordinates":[-51.169906,-30.073711]},"properties":{"stop_id":"2663","stop_name":"Borborema Df 777 ","stop_code":null}},{"type":"Feature","geometry":{"type":"Point","coordinates":[-51.098286,-30.122906]},"properties":{"stop_id":"4551","stop_name":"Gervazio Braga Pinheiro 518 Shalon Confeccoes","stop_code":null}},{"type":"Feature","geometry":{"type":"Point","coordinates":[-51.098141,-30.123056]},"properties":{"stop_id":"4552","stop_name":"Gervazio Braga Pinheiro Df 488 Escola","stop_code":null}},{"type":"Feature","geometry":{"type":"Point","coordinates":[-51.178511,-30.207647]},"properties":{"stop_id":"6246","stop_name":"Francisca De Oliveira Vieira 488 ","stop_code":null}},{"type":"Feature","geometry":{"type":"Point","coordinates":[-51.17846,-30.207728]},"properties":{"stop_id":"6943","stop_name":"Francisca De Oliveira Vieira Df 488 ","stop_code":null}},{"type":"Feature","geometry":{"type":"Point","coordinates":[-51.152408,-30.056891]},"properties":{"stop_id":"2825","stop_name":"Bem-te-vi 263 ","stop_code":null}},{"type":"Feature","geometry":{"type":"Point","coordinates":[-51.184538,-30.117353]},"properties":{"stop_id":"1192","stop_name":"Belem Velho Esq. Kanazawa ","stop_code":null}},{"type":"Feature","geometry":{"type":"Point","coordinates":[-51.191053,-29.991437]},"properties":{"stop_id":"6942","stop_name":"Ernesto Neugebauer Df 280 ","stop_code":null}},{"type":"Feature","geometry":{"type":"Point","coordinates":[-51.191143,-29.991417]},"properties":{"stop_id":"6941","stop_name":"Ernesto Neugebauer 280 ","stop_code":null}},{"type":"Feature","geometry":{"type":"Point","coordinates":[-51.132705,-30.017702]},"properties":{"stop_id":"3462","stop_name":"Alexandre Luiz Df 193 ","stop_code":null}},{"type":"Feature","geometry":{"type":"Point","coordinates":[-51.210338,-30.107503]},"properties":{"stop_id":"1210","stop_name":"Amapa 1300 ","stop_code":null}},{"type":"Feature","geometry":{"type":"Point","coordinates":[-51.131828,-30.034816]},"properties":{"stop_id":"3395","stop_name":"Nilo Ruschel Df 672 Praca Quadra De Futebol","stop_code":null}},{"type":"Feature","geometry":{"type":"Point","coordinates":[-51.098922,-30.121278]},"properties":{"stop_id":"4555","stop_name":"Gervazio Braga Pinheiro Al 738 ","stop_code":null}},{"type":"Feature","geometry":{"type":"Point","coordinates":[-51.183953,-30.210528]},"properties":{"stop_id":"88","stop_name":"Heitor Vieira 359/363 ","stop_code":null}},{"type":"Feature","geometry":{"type":"Point","coordinates":[-51.170047,-30.156173]},"properties":{"stop_id":"5303","stop_name":"Edgar Pires De Castro Al 2069 ","stop_code":null}},{"type":"Feature","geometry":{"type":"Point","coordinates":[-51.11575,-30.204522]},"properties":{"stop_id":"4355","stop_name":"Edgar Pires De Castro Df 10521 Escola General Neto","stop_code":null}},{"type":"Feature","geometry":{"type":"Point","coordinates":[-51.102817,-30.119332]},"properties":{"stop_id":"4515","stop_name":"Taquara 467 ","stop_code":null}},{"type":"Feature","geometry":{"type":"Point","coordinates":[-51.197213,-30.132167]},"properties":{"stop_id":"6940","stop_name":"Cristiano Kraemer 2007 ","stop_code":null}},{"type":"Feature","geometry":{"type":"Point","coordinates":[-51.19863,-30.00355]},"properties":{"stop_id":"3610","stop_name":"Pernambuco 1234 ","stop_code":null}},{"type":"Feature","geometry":{"type":"Point","coordinates":[-51.25255,-30.029548]},"properties":{"stop_id":"6939","stop_name":"Marinheiros Al 130 ","stop_code":null}},{"type":"Feature","geometry":{"type":"Point","coordinates":[-51.237568,-30.030527]},"properties":{"stop_id":"1525","stop_name":"Maua Ef Armazem A5 ","stop_code":null}},{"type":"Feature","geometry":{"type":"Point","coordinates":[-51.091861,-30.028657]},"properties":{"stop_id":"6938","stop_name":"Irmao Antonio Cecchin Df 495 ","stop_code":null}},{"type":"Feature","geometry":{"type":"Point","coordinates":[-51.097631,-30.017322]},"properties":{"stop_id":"4771","stop_name":"Joao Fazio Amato 248 ","stop_code":null}},{"type":"Feature","geometry":{"type":"Point","coordinates":[-51.15239,-30.054985]},"properties":{"stop_id":"2828","stop_name":"Um Cefer Um Al 253 - Df 170 ","stop_code":null}},{"type":"Feature","geometry":{"type":"Point","coordinates":[-51.185782,-29.980277]},"properties":{"stop_id":"6502","stop_name":"Dr Caio Brandao De Mello Ef Emef Ver Anto ","stop_code":null}},{"type":"Feature","geometry":{"type":"Point","coordinates":[-51.157462,-29.987098]},"properties":{"stop_id":"6351","stop_name":"Severo Dullius 125 ","stop_code":null}},{"type":"Feature","geometry":{"type":"Point","coordinates":[-51.155876,-29.987112]},"properties":{"stop_id":"6937","stop_name":"Severo Dullius Df 25 ","stop_code":null}},{"type":"Feature","geometry":{"type":"Point","coordinates":[-51.155571,-29.986839]},"properties":{"stop_id":"6936","stop_name":"Lenea Gaelzer 6935_Espelhada ","stop_code":null}},{"type":"Feature","geometry":{"type":"Point","coordinates":[-51.155654,-29.986832]},"properties":{"stop_id":"6935","stop_name":"Lenea Gaelzer Ef Alfa Sist Aut ","stop_code":null}},{"type":"Feature","geometry":{"type":"Point","coordinates":[-51.212744,-30.145946]},"properties":{"stop_id":"6934","stop_name":"Seis Mil Trezentos Vinte Um S/N ","stop_code":null}},{"type":"Feature","geometry":{"type":"Point","coordinates":[-51.134631,-30.141758]},"properties":{"stop_id":"6933","stop_name":"Solon Vieira Marques 655 ","stop_code":null}},{"type":"Feature","geometry":{"type":"Point","coordinates":[-51.090947,-30.027353]},"properties":{"stop_id":"6932","stop_name":"Ten Cel Waldomiro Eifler Al 406 ","stop_code":null}},{"type":"Feature","geometry":{"type":"Point","coordinates":[-51.199147,-30.005766]},"properties":{"stop_id":"6930","stop_name":"Brasil Df 834 ","stop_code":null}},{"type":"Feature","geometry":{"type":"Point","coordinates":[-51.091061,-30.027691]},"properties":{"stop_id":"6931","stop_name":"Ten Cel Waldomiro Eifler Df 406 ","stop_code":null}},{"type":"Feature","geometry":{"type":"Point","coordinates":[-51.201302,-30.005112]},"properties":{"stop_id":"6929","stop_name":"Brasil Df 610 ","stop_code":null}},{"type":"Feature","geometry":{"type":"Point","coordinates":[-51.177023,-30.047191]},"properties":{"stop_id":"6928","stop_name":"Winston Churchill Esq R Dr Jose C ","stop_code":null}},{"type":"Feature","geometry":{"type":"Point","coordinates":[-51.175715,-30.047161]},"properties":{"stop_id":"6927","stop_name":"Winston Churchill Esq R Liverpool ","stop_code":null}},{"type":"Feature","geometry":{"type":"Point","coordinates":[-51.173651,-30.047126]},"properties":{"stop_id":"6926","stop_name":"Winston Churchill Esq R Piramide ","stop_code":null}},{"type":"Feature","geometry":{"type":"Point","coordinates":[-51.129398,-30.026374]},"properties":{"stop_id":"6685","stop_name":"Tres Mil Quarenta Lot Campos Conde Sn Po Na Rua D","stop_code":null}},{"type":"Feature","geometry":{"type":"Point","coordinates":[-51.191287,-29.973738]},"properties":{"stop_id":"6925","stop_name":"Airton Ferreira Da Silva Df 225 ","stop_code":null}},{"type":"Feature","geometry":{"type":"Point","coordinates":[-51.129301,-30.027534]},"properties":{"stop_id":"6661","stop_name":"G Jardim Passo Das Pedras Ii 78 ","stop_code":null}},{"type":"Feature","geometry":{"type":"Point","coordinates":[-51.127533,-29.990448]},"properties":{"stop_id":"6832","stop_name":"Minas Gerais Df 425 ","stop_code":null}},{"type":"Feature","geometry":{"type":"Point","coordinates":[-51.129688,-29.990571]},"properties":{"stop_id":"6577","stop_name":"Minas Gerais 226 ","stop_code":null}},{"type":"Feature","geometry":{"type":"Point","coordinates":[-51.115746,-30.019823]},"properties":{"stop_id":"6172","stop_name":"Juscelino Kubitschek De Oliveira Nn 440 ","stop_code":null}},{"type":"Feature","geometry":{"type":"Point","coordinates":[-51.208664,-30.123927]},"properties":{"stop_id":"5787","stop_name":"Ventos Do Sul Df 120 ","stop_code":null}},{"type":"Feature","geometry":{"type":"Point","coordinates":[-51.210364,-30.050311]},"properties":{"stop_id":"5499","stop_name":"Azenha  ","stop_code":null}},{"type":"Feature","geometry":{"type":"Point","coordinates":[-51.227411,-30.02705]},"properties":{"stop_id":"5258","stop_name":"Pereira Parobe  Mercado Publico","stop_code":null}},{"type":"Feature","geometry":{"type":"Point","coordinates":[-51.098854,-30.006978]},"properties":{"stop_id":"4919","stop_name":"Joao Ferreira Jardim Df 749 ","stop_code":null}},{"type":"Feature","geometry":{"type":"Point","coordinates":[-51.134306,-30.014157]},"properties":{"stop_id":"4124","stop_name":"Bispo Joao Scalabrini 300 ","stop_code":null}},{"type":"Feature","geometry":{"type":"Point","coordinates":[-51.227469,-30.026888]},"properties":{"stop_id":"5257","stop_name":"Pereira Parobe  Mercado Publico","stop_code":null}},{"type":"Feature","geometry":{"type":"Point","coordinates":[-51.12877,-30.025997]},"properties":{"stop_id":"3453","stop_name":"G Jardim Passo Das Pedras Ii 124 Construtora Coqueiros","stop_code":null}},{"type":"Feature","geometry":{"type":"Point","coordinates":[-51.193025,-30.076304]},"properties":{"stop_id":"1902","stop_name":"Gen Jonathas Borges Fortes 339 Escola","stop_code":null}},{"type":"Feature","geometry":{"type":"Point","coordinates":[-51.193215,-30.076266]},"properties":{"stop_id":"1901","stop_name":"Gen Jonathas Borges Fortes Df 339 Escola","stop_code":null}},{"type":"Feature","geometry":{"type":"Point","coordinates":[-51.195813,-30.006787]},"properties":{"stop_id":"6336","stop_name":"Brasil 1183 ","stop_code":null}},{"type":"Feature","geometry":{"type":"Point","coordinates":[-51.225218,-30.16077]},"properties":{"stop_id":"21","stop_name":"Orleaes 325 ","stop_code":null}},{"type":"Feature","geometry":{"type":"Point","coordinates":[-51.178183,-30.208993]},"properties":{"stop_id":"186","stop_name":"Podalirio Teixeira Machado Al 230 ","stop_code":null}},{"type":"Feature","geometry":{"type":"Point","coordinates":[-51.251656,-30.095975]},"properties":{"stop_id":"570","stop_name":"Guaiba 1924 Dmae","stop_code":null}},{"type":"Feature","geometry":{"type":"Point","coordinates":[-51.251668,-30.095899]},"properties":{"stop_id":"571","stop_name":"Guaiba 570_Espelhada Entrada Iate Clube Guaiba","stop_code":null}},{"type":"Feature","geometry":{"type":"Point","coordinates":[-51.136101,-30.143839]},"properties":{"stop_id":"6924","stop_name":"Solon Vieira Marques S/N ","stop_code":null}},{"type":"Feature","geometry":{"type":"Point","coordinates":[-51.205685,-30.119746]},"properties":{"stop_id":"6921","stop_name":"Cel Frederico Carlos Gomes 116 ","stop_code":null}},{"type":"Feature","geometry":{"type":"Point","coordinates":[-51.127971,-29.993929]},"properties":{"stop_id":"4210","stop_name":"Francisco Silveira Bitencourt 104 ","stop_code":null}},{"type":"Feature","geometry":{"type":"Point","coordinates":[-51.192214,-30.033452]},"properties":{"stop_id":"2256","stop_name":"Casemiro De Abreu 1549 ","stop_code":null}},{"type":"Feature","geometry":{"type":"Point","coordinates":[-51.139536,-30.006188]},"properties":{"stop_id":"4069","stop_name":"Assis Brasil 4822 ","stop_code":null}},{"type":"Feature","geometry":{"type":"Point","coordinates":[-51.106714,-30.041546]},"properties":{"stop_id":"6923","stop_name":"Tres Jardim Protasio Alves 5 ","stop_code":null}},{"type":"Feature","geometry":{"type":"Point","coordinates":[-51.248319,-30.100911]},"properties":{"stop_id":"6326","stop_name":"Cassio De Medeiros 25 ","stop_code":null}},{"type":"Feature","geometry":{"type":"Point","coordinates":[-51.170043,-30.067811]},"properties":{"stop_id":"2687","stop_name":"Dona Firmina 657 ","stop_code":null}},{"type":"Feature","geometry":{"type":"Point","coordinates":[-51.225867,-30.08996]},"properties":{"stop_id":"1008","stop_name":"Coelho Da Costa Df 25 Praça Maurício Zaducliver","stop_code":null}},{"type":"Feature","geometry":{"type":"Point","coordinates":[-51.139789,-30.027464]},"properties":{"stop_id":"6922","stop_name":"Leopoldo Bettiol 360 ","stop_code":null}},{"type":"Feature","geometry":{"type":"Point","coordinates":[-51.095086,-30.007238]},"properties":{"stop_id":"4937","stop_name":"Mauricio Seligman 527 Escola","stop_code":null}},{"type":"Feature","geometry":{"type":"Point","coordinates":[-51.130069,-30.023514]},"properties":{"stop_id":"6920","stop_name":"Mil Setecentos Seis Esq R Dez De Mai ","stop_code":null}},{"type":"Feature","geometry":{"type":"Point","coordinates":[-51.21329,-30.062558]},"properties":{"stop_id":"6919","stop_name":"Cel Gastao Haslocher Mazeron Ef 173 ","stop_code":null}},{"type":"Feature","geometry":{"type":"Point","coordinates":[-51.212971,-30.063446]},"properties":{"stop_id":"6918","stop_name":"Cel Gastao Haslocher Mazeron Ef 220 ","stop_code":null}},{"type":"Feature","geometry":{"type":"Point","coordinates":[-51.21348,-30.066076]},"properties":{"stop_id":"6917","stop_name":"Cel Gastao Haslocher Mazeron Ef 511 ","stop_code":null}},{"type":"Feature","geometry":{"type":"Point","coordinates":[-51.213521,-30.066836]},"properties":{"stop_id":"6916","stop_name":"Cel Gastao Haslocher Mazeron Df 637 ","stop_code":null}},{"type":"Feature","geometry":{"type":"Point","coordinates":[-51.2116,-30.070192]},"properties":{"stop_id":"1715","stop_name":"Silva Paes Al 1715 (Nn 1737 ","stop_code":null}},{"type":"Feature","geometry":{"type":"Point","coordinates":[-51.214166,-30.068927]},"properties":{"stop_id":"1709","stop_name":"Bispo Laranjeira 94 ","stop_code":null}},{"type":"Feature","geometry":{"type":"Point","coordinates":[-51.208031,-30.076221]},"properties":{"stop_id":"1735","stop_name":"Teresopolis 2565 ","stop_code":null}},{"type":"Feature","geometry":{"type":"Point","coordinates":[-51.158691,-30.062013]},"properties":{"stop_id":"2797","stop_name":"Elias Cirne Lima 200a ","stop_code":null}},{"type":"Feature","geometry":{"type":"Point","coordinates":[-51.157444,-30.059777]},"properties":{"stop_id":"2802","stop_name":"Elias Cirne Lima 366 ","stop_code":null}},{"type":"Feature","geometry":{"type":"Point","coordinates":[-51.156957,-30.058903]},"properties":{"stop_id":"2806","stop_name":"Elias Cirne Lima 454 ","stop_code":null}},{"type":"Feature","geometry":{"type":"Point","coordinates":[-51.14311,-29.989066]},"properties":{"stop_id":"6915","stop_name":"Sergio Jungblut Dieterich Df 900 ","stop_code":null}},{"type":"Feature","geometry":{"type":"Point","coordinates":[-51.212812,-30.034688]},"properties":{"stop_id":"2104","stop_name":"Osvaldo Aranha 972 ","stop_code":null}},{"type":"Feature","geometry":{"type":"Point","coordinates":[-51.22402,-30.026479]},"properties":{"stop_id":"5829","stop_name":"Rui Barbosa  Cpc","stop_code":null}},{"type":"Feature","geometry":{"type":"Point","coordinates":[-51.224911,-30.025982]},"properties":{"stop_id":"6854","stop_name":"Julio De Castilhos 173 ","stop_code":null}},{"type":"Feature","geometry":{"type":"Point","coordinates":[-51.192497,-30.093569]},"properties":{"stop_id":"1274","stop_name":"Alpes 1186 ","stop_code":null}},{"type":"Feature","geometry":{"type":"Point","coordinates":[-51.193357,-30.092543]},"properties":{"stop_id":"6260","stop_name":"Alpes 1080 ","stop_code":null}},{"type":"Feature","geometry":{"type":"Point","coordinates":[-51.194664,-30.091573]},"properties":{"stop_id":"1290","stop_name":"Alpes 893 ","stop_code":null}},{"type":"Feature","geometry":{"type":"Point","coordinates":[-51.195773,-30.088485]},"properties":{"stop_id":"6631","stop_name":"Alpes Df 546 ","stop_code":null}},{"type":"Feature","geometry":{"type":"Point","coordinates":[-51.195707,-30.088431]},"properties":{"stop_id":"1293","stop_name":"Alpes 546 ","stop_code":null}},{"type":"Feature","geometry":{"type":"Point","coordinates":[-51.16975,-30.07507]},"properties":{"stop_id":"2661","stop_name":"Euzebio Silva 99 ","stop_code":null}},{"type":"Feature","geometry":{"type":"Point","coordinates":[-51.227958,-30.114494]},"properties":{"stop_id":"6914","stop_name":"Esperanca Cidade De Deus Df 232 ","stop_code":null}},{"type":"Feature","geometry":{"type":"Point","coordinates":[-51.264379,-30.099928]},"properties":{"stop_id":"509","stop_name":"Pereira Passos 27 ","stop_code":null}},{"type":"Feature","geometry":{"type":"Point","coordinates":[-51.09594,-29.98979]},"properties":{"stop_id":"5982","stop_name":"Maias 461 ","stop_code":null}},{"type":"Feature","geometry":{"type":"Point","coordinates":[-51.235249,-30.035074]},"properties":{"stop_id":"1515","stop_name":"Gen Cypriano Ferreira 561 ","stop_code":null}},{"type":"Feature","geometry":{"type":"Point","coordinates":[-51.251374,-30.114626]},"properties":{"stop_id":"5039","stop_name":"Nossa Senhora De Lourdes 381 ","stop_code":null}},{"type":"Feature","geometry":{"type":"Point","coordinates":[-51.250499,-30.114531]},"properties":{"stop_id":"541","stop_name":"Landel De Moura 999 ","stop_code":null}},{"type":"Feature","geometry":{"type":"Point","coordinates":[-51.248995,-30.113979]},"properties":{"stop_id":"731","stop_name":"Landel De Moura 1139 ","stop_code":null}},{"type":"Feature","geometry":{"type":"Point","coordinates":[-51.13467,-29.995047]},"properties":{"stop_id":"4118","stop_name":"Augusto Porto Alegre 338 ","stop_code":null}},{"type":"Feature","geometry":{"type":"Point","coordinates":[-51.092441,-29.988666]},"properties":{"stop_id":"6913","stop_name":"Lygia Pratini De Moraes 149 ","stop_code":null}},{"type":"Feature","geometry":{"type":"Point","coordinates":[-51.236364,-30.086903]},"properties":{"stop_id":"883","stop_name":"Butui 470 ","stop_code":null}},{"type":"Feature","geometry":{"type":"Point","coordinates":[-51.103276,-30.006246]},"properties":{"stop_id":"6912","stop_name":"Raymundo Luiz Marinho Filho Al 385 ","stop_code":null}},{"type":"Feature","geometry":{"type":"Point","coordinates":[-51.12884,-30.195766]},"properties":{"stop_id":"6565","stop_name":"Edgar Pires De Castro 9233 ","stop_code":null}},{"type":"Feature","geometry":{"type":"Point","coordinates":[-51.129931,-30.19436]},"properties":{"stop_id":"378","stop_name":"Edgar Pires De Castro Df 9140 ","stop_code":null}},{"type":"Feature","geometry":{"type":"Point","coordinates":[-51.129891,-30.194267]},"properties":{"stop_id":"379","stop_name":"Edgar Pires De Castro 9100 ","stop_code":null}},{"type":"Feature","geometry":{"type":"Point","coordinates":[-51.131368,-30.191691]},"properties":{"stop_id":"5955","stop_name":"Edgar Pires De Castro 8675 ","stop_code":null}},{"type":"Feature","geometry":{"type":"Point","coordinates":[-51.132596,-30.190363]},"properties":{"stop_id":"377","stop_name":"Edgar Pires De Castro 8517 ","stop_code":null}},{"type":"Feature","geometry":{"type":"Point","coordinates":[-51.131306,-30.191623]},"properties":{"stop_id":"5954","stop_name":"Edgar Pires De Castro 8670 ","stop_code":null}},{"type":"Feature","geometry":{"type":"Point","coordinates":[-51.135138,-30.188536]},"properties":{"stop_id":"6340","stop_name":"Edgar Pires De Castro 7247 ","stop_code":null}},{"type":"Feature","geometry":{"type":"Point","coordinates":[-51.135155,-30.18842]},"properties":{"stop_id":"355","stop_name":"Edgar Pires De Castro Al 8004 ","stop_code":null}},{"type":"Feature","geometry":{"type":"Point","coordinates":[-51.137759,-30.185408]},"properties":{"stop_id":"354","stop_name":"Edgar Pires De Castro 6914 ","stop_code":null}},{"type":"Feature","geometry":{"type":"Point","coordinates":[-51.138865,-30.184416]},"properties":{"stop_id":"347","stop_name":"Edgar Pires De Castro 6849 ","stop_code":null}},{"type":"Feature","geometry":{"type":"Point","coordinates":[-51.191428,-30.159099]},"properties":{"stop_id":"6088","stop_name":"Dorival Castilho Machado 94 ","stop_code":null}},{"type":"Feature","geometry":{"type":"Point","coordinates":[-51.139974,-30.183466]},"properties":{"stop_id":"351","stop_name":"Edgar Pires De Castro 6670 ","stop_code":null}},{"type":"Feature","geometry":{"type":"Point","coordinates":[-51.194372,-30.164414]},"properties":{"stop_id":"6092","stop_name":"Dorival Castilho Machado Df 757 ","stop_code":null}},{"type":"Feature","geometry":{"type":"Point","coordinates":[-51.183986,-30.015834]},"properties":{"stop_id":"3627","stop_name":"Luzitana 826 ","stop_code":null}},{"type":"Feature","geometry":{"type":"Point","coordinates":[-51.195168,-30.166322]},"properties":{"stop_id":"6093","stop_name":"A Rua Dorival Castilho Machado Nc ","stop_code":null}},{"type":"Feature","geometry":{"type":"Point","coordinates":[-51.194383,-29.979352]},"properties":{"stop_id":"3720","stop_name":"Graciano Camozzato Al185/Df 204 Posto De Saude","stop_code":null}},{"type":"Feature","geometry":{"type":"Point","coordinates":[-51.194895,-29.979154]},"properties":{"stop_id":"5781","stop_name":"Graciano Camozzato 26 ","stop_code":null}},{"type":"Feature","geometry":{"type":"Point","coordinates":[-51.196285,-29.978796]},"properties":{"stop_id":"3719","stop_name":"Graciano Camozzato Ef Creche Jp Ii Creche João Paulo I","stop_code":null}},{"type":"Feature","geometry":{"type":"Point","coordinates":[-51.196195,-29.978902]},"properties":{"stop_id":"6911","stop_name":"Graciano Camozzato Ef Praça Sesi ","stop_code":null}},{"type":"Feature","geometry":{"type":"Point","coordinates":[-51.16218,-30.183702]},"properties":{"stop_id":"240","stop_name":"Chapeu Do Sol 1798 ","stop_code":null}},{"type":"Feature","geometry":{"type":"Point","coordinates":[-51.146297,-30.045741]},"properties":{"stop_id":"3236","stop_name":"Sargento Manoel Arruda Df 265 ","stop_code":null}},{"type":"Feature","geometry":{"type":"Point","coordinates":[-51.102464,-30.001239]},"properties":{"stop_id":"4836","stop_name":"Jorge Furtado Df 74 ","stop_code":null}},{"type":"Feature","geometry":{"type":"Point","coordinates":[-51.123894,-30.036465]},"properties":{"stop_id":"3428","stop_name":"Joao Dallegrave Df 275 ","stop_code":null}},{"type":"Feature","geometry":{"type":"Point","coordinates":[-51.159836,-30.011536]},"properties":{"stop_id":"3860","stop_name":"Francisco Trein Df 98 ","stop_code":null}},{"type":"Feature","geometry":{"type":"Point","coordinates":[-51.099996,-30.021665]},"properties":{"stop_id":"4763","stop_name":"Jose Luiz Martins Costa Df 134 ","stop_code":null}},{"type":"Feature","geometry":{"type":"Point","coordinates":[-51.099909,-30.022747]},"properties":{"stop_id":"4761","stop_name":"Jose Luiz Martins Costa Df 80 ","stop_code":null}},{"type":"Feature","geometry":{"type":"Point","coordinates":[-51.092407,-29.989757]},"properties":{"stop_id":"5168","stop_name":"Lygia Pratini De Moraes 62 Paulino G. Barcelos","stop_code":null}},{"type":"Feature","geometry":{"type":"Point","coordinates":[-51.212111,-30.042082]},"properties":{"stop_id":"2090","stop_name":"Santana Df 440 ","stop_code":null}},{"type":"Feature","geometry":{"type":"Point","coordinates":[-51.211994,-30.04211]},"properties":{"stop_id":"2091","stop_name":"Santana 440 Promotoria Ministerio Publico","stop_code":null}},{"type":"Feature","geometry":{"type":"Point","coordinates":[-51.143434,-30.032837]},"properties":{"stop_id":"3263","stop_name":"Guadalajara 605 ","stop_code":null}},{"type":"Feature","geometry":{"type":"Point","coordinates":[-51.143345,-30.032637]},"properties":{"stop_id":"3320","stop_name":"Guadalajara 580 ","stop_code":null}},{"type":"Feature","geometry":{"type":"Point","coordinates":[-51.14417,-30.048002]},"properties":{"stop_id":"3237","stop_name":"Juvenal Cruz Al 297 ","stop_code":null}},{"type":"Feature","geometry":{"type":"Point","coordinates":[-51.150273,-30.026634]},"properties":{"stop_id":"3313","stop_name":"Pero Vaz De Caminha 60 ","stop_code":null}},{"type":"Feature","geometry":{"type":"Point","coordinates":[-51.143158,-30.044693]},"properties":{"stop_id":"3247","stop_name":"Antonio Carvalho 2800 ","stop_code":null}},{"type":"Feature","geometry":{"type":"Point","coordinates":[-51.22297,-30.103793]},"properties":{"stop_id":"976","stop_name":"Vicente Monteggia 1008 ","stop_code":null}},{"type":"Feature","geometry":{"type":"Point","coordinates":[-51.223084,-30.103684]},"properties":{"stop_id":"5681","stop_name":"Vicente Monteggia 1029 ","stop_code":null}},{"type":"Feature","geometry":{"type":"Point","coordinates":[-51.176413,-30.115446]},"properties":{"stop_id":"2405","stop_name":"Afonso Lourenco Mariante 91 ","stop_code":null}},{"type":"Feature","geometry":{"type":"Point","coordinates":[-51.176379,-30.11538]},"properties":{"stop_id":"2406","stop_name":"Afonso Lourenco Mariante 86 ","stop_code":null}},{"type":"Feature","geometry":{"type":"Point","coordinates":[-51.214997,-30.077093]},"properties":{"stop_id":"1675","stop_name":"Orfanotrofio 50 ","stop_code":null}},{"type":"Feature","geometry":{"type":"Point","coordinates":[-51.234026,-30.086856]},"properties":{"stop_id":"886","stop_name":"Comandai 252 ","stop_code":null}},{"type":"Feature","geometry":{"type":"Point","coordinates":[-51.195709,-29.973111]},"properties":{"stop_id":"6910","stop_name":"Voluntarios Da Patria Df Arena ","stop_code":null}},{"type":"Feature","geometry":{"type":"Point","coordinates":[-51.104327,-30.040879]},"properties":{"stop_id":"4659","stop_name":"Delegado Ely Correa Prado 45 ","stop_code":null}},{"type":"Feature","geometry":{"type":"Point","coordinates":[-51.130964,-29.984526]},"properties":{"stop_id":"4225","stop_name":"Faria Lobato 384 ","stop_code":null}},{"type":"Feature","geometry":{"type":"Point","coordinates":[-51.146137,-29.999135]},"properties":{"stop_id":"4088","stop_name":"Assis Chateaubriand Df 525 ","stop_code":null}},{"type":"Feature","geometry":{"type":"Point","coordinates":[-51.161288,-30.148553]},"properties":{"stop_id":"334","stop_name":"Costa Gama Df 4448 ","stop_code":null}},{"type":"Feature","geometry":{"type":"Point","coordinates":[-51.161207,-30.148568]},"properties":{"stop_id":"335","stop_name":"Costa Gama 4448 ","stop_code":null}},{"type":"Feature","geometry":{"type":"Point","coordinates":[-51.202958,-30.031387]},"properties":{"stop_id":"2210","stop_name":"Goethe 195 ","stop_code":null}},{"type":"Feature","geometry":{"type":"Point","coordinates":[-51.212862,-30.067712]},"properties":{"stop_id":"1711","stop_name":"Dr Carlos Barbosa Df 1400 ","stop_code":null}},{"type":"Feature","geometry":{"type":"Point","coordinates":[-51.187962,-30.030547]},"properties":{"stop_id":"6309","stop_name":"Artur Rocha 860 ","stop_code":null}},{"type":"Feature","geometry":{"type":"Point","coordinates":[-51.229149,-30.10138]},"properties":{"stop_id":"933","stop_name":"Otto Niemeyer 3300 ","stop_code":null}},{"type":"Feature","geometry":{"type":"Point","coordinates":[-51.218526,-30.110848]},"properties":{"stop_id":"961","stop_name":"Vicente Monteggia 1948 ","stop_code":null}},{"type":"Feature","geometry":{"type":"Point","coordinates":[-51.200472,-30.050204]},"properties":{"stop_id":"1863","stop_name":"Sao Manoel 1900 Esc Est Educ Apeles Porto Alegre","stop_code":null}},{"type":"Feature","geometry":{"type":"Point","coordinates":[-51.135242,-30.031465]},"properties":{"stop_id":"3364","stop_name":"Alberto Pasqualini 1380 ","stop_code":null}},{"type":"Feature","geometry":{"type":"Point","coordinates":[-51.147541,-30.015831]},"properties":{"stop_id":"4007","stop_name":"Benno Mentz Df 603 Praça","stop_code":null}},{"type":"Feature","geometry":{"type":"Point","coordinates":[-51.210993,-30.127574]},"properties":{"stop_id":"1092","stop_name":"Derocy Giacomo Da Silva Df 257 ","stop_code":null}},{"type":"Feature","geometry":{"type":"Point","coordinates":[-51.097006,-30.118637]},"properties":{"stop_id":"4564","stop_name":"Sao Marcos-lomba Do Pinheiro 56 ","stop_code":null}},{"type":"Feature","geometry":{"type":"Point","coordinates":[-51.10375,-30.124483]},"properties":{"stop_id":"4495","stop_name":"Joao De Oliveira Remiao 6650 Ctg","stop_code":null}},{"type":"Feature","geometry":{"type":"Point","coordinates":[-51.107546,-30.009872]},"properties":{"stop_id":"4810","stop_name":"Delmar Rocha Barbosa 668 ","stop_code":null}},{"type":"Feature","geometry":{"type":"Point","coordinates":[-51.148738,-30.060986]},"properties":{"stop_id":"3158","stop_name":"Antonio Carvalho Al 573 Hospital Independencia","stop_code":null}},{"type":"Feature","geometry":{"type":"Point","coordinates":[-51.099237,-30.012114]},"properties":{"stop_id":"4906","stop_name":"Joao Ferreira Jardim 140/Df 205 ","stop_code":null}},{"type":"Feature","geometry":{"type":"Point","coordinates":[-51.207321,-30.048851]},"properties":{"stop_id":"2116","stop_name":"Santana 1275 ","stop_code":null}},{"type":"Feature","geometry":{"type":"Point","coordinates":[-51.115071,-30.019917]},"properties":{"stop_id":"6173","stop_name":"Juscelino Kubitschek De Oliveira Df 440 ","stop_code":null}},{"type":"Feature","geometry":{"type":"Point","coordinates":[-51.252265,-30.112789]},"properties":{"stop_id":"6270","stop_name":"Nossa Senhora De Lourdes 189 ","stop_code":null}},{"type":"Feature","geometry":{"type":"Point","coordinates":[-51.250504,-30.114455]},"properties":{"stop_id":"542","stop_name":"Landel De Moura Df 999 ","stop_code":null}},{"type":"Feature","geometry":{"type":"Point","coordinates":[-51.09967,-30.024739]},"properties":{"stop_id":"4760","stop_name":"Jose Luiz Martins Costa Df 200 ","stop_code":null}},{"type":"Feature","geometry":{"type":"Point","coordinates":[-51.110304,-30.022952]},"properties":{"stop_id":"4684","stop_name":"Ten Alberto Mendes Junior 340 ","stop_code":null}},{"type":"Feature","geometry":{"type":"Point","coordinates":[-51.202558,-30.122006]},"properties":{"stop_id":"1144","stop_name":"Cristiano Kraemer 725 ","stop_code":null}},{"type":"Feature","geometry":{"type":"Point","coordinates":[-51.203171,-30.074577]},"properties":{"stop_id":"1745","stop_name":"Dom Bosco 20 ","stop_code":null}},{"type":"Feature","geometry":{"type":"Point","coordinates":[-51.101202,-30.110507]},"properties":{"stop_id":"6909","stop_name":"Taquara 1486 ","stop_code":null}},{"type":"Feature","geometry":{"type":"Point","coordinates":[-51.202472,-30.122083]},"properties":{"stop_id":"1146","stop_name":"Cristiano Kraemer 736 ","stop_code":null}},{"type":"Feature","geometry":{"type":"Point","coordinates":[-51.101192,-30.110407]},"properties":{"stop_id":"4619","stop_name":"Taquara Df 1488 ","stop_code":null}},{"type":"Feature","geometry":{"type":"Point","coordinates":[-51.121366,-30.202525]},"properties":{"stop_id":"6908","stop_name":"Vitoria 6907_Espelhada ","stop_code":null}},{"type":"Feature","geometry":{"type":"Point","coordinates":[-51.132725,-29.993847]},"properties":{"stop_id":"6833","stop_name":"Xavier De Carvalho 247 ","stop_code":null}},{"type":"Feature","geometry":{"type":"Point","coordinates":[-51.132328,-29.99411]},"properties":{"stop_id":"6834","stop_name":"Xavier De Carvalho Df 227 ","stop_code":null}},{"type":"Feature","geometry":{"type":"Point","coordinates":[-51.121309,-30.202577]},"properties":{"stop_id":"6907","stop_name":"Vitoria 1857 ","stop_code":null}},{"type":"Feature","geometry":{"type":"Point","coordinates":[-51.211458,-30.145684]},"properties":{"stop_id":"1059","stop_name":"Dr Pitrez 22 ","stop_code":null}},{"type":"Feature","geometry":{"type":"Point","coordinates":[-51.138219,-30.0951]},"properties":{"stop_id":"2555","stop_name":"Sao Francisco Df 820 ","stop_code":null}},{"type":"Feature","geometry":{"type":"Point","coordinates":[-51.183962,-30.117473]},"properties":{"stop_id":"1193","stop_name":"Dr Vergara 5025 ","stop_code":null}},{"type":"Feature","geometry":{"type":"Point","coordinates":[-51.225974,-30.158849]},"properties":{"stop_id":"22","stop_name":"Orleaes 85/95 ","stop_code":null}},{"type":"Feature","geometry":{"type":"Point","coordinates":[-51.174187,-30.012553]},"properties":{"stop_id":"5621","stop_name":"Industriarios Df 9ºdp 9ª Delegacia","stop_code":null}},{"type":"Feature","geometry":{"type":"Point","coordinates":[-51.174442,-30.012033]},"properties":{"stop_id":"3802","stop_name":"Industriarios 44 Policia Civil","stop_code":null}},{"type":"Feature","geometry":{"type":"Point","coordinates":[-51.173862,-30.013794]},"properties":{"stop_id":"3796","stop_name":"Industriarios 278 ","stop_code":null}},{"type":"Feature","geometry":{"type":"Point","coordinates":[-51.17393,-30.013954]},"properties":{"stop_id":"3801","stop_name":"Industriarios Df 294 ","stop_code":null}},{"type":"Feature","geometry":{"type":"Point","coordinates":[-51.173813,-30.015424]},"properties":{"stop_id":"3795","stop_name":"Industriarios Df 448 ","stop_code":null}},{"type":"Feature","geometry":{"type":"Point","coordinates":[-51.173647,-30.016381]},"properties":{"stop_id":"2967","stop_name":"Industriarios 568 ","stop_code":null}},{"type":"Feature","geometry":{"type":"Point","coordinates":[-51.173773,-30.014872]},"properties":{"stop_id":"3794","stop_name":"Industriarios 406 ","stop_code":null}},{"type":"Feature","geometry":{"type":"Point","coordinates":[-51.225296,-30.107062]},"properties":{"stop_id":"920","stop_name":"Gregorio Perez 255 ","stop_code":null}},{"type":"Feature","geometry":{"type":"Point","coordinates":[-51.124174,-30.038941]},"properties":{"stop_id":"3424","stop_name":"Antonio Giudice Df 136 ","stop_code":null}},{"type":"Feature","geometry":{"type":"Point","coordinates":[-51.098139,-30.125516]},"properties":{"stop_id":"4549","stop_name":"Panorama 263 Padaria E Confeitaria","stop_code":null}},{"type":"Feature","geometry":{"type":"Point","coordinates":[-51.126584,-30.02316]},"properties":{"stop_id":"3467","stop_name":"I Jardim Passo Das Pedras Ii Al 355 ","stop_code":null}},{"type":"Feature","geometry":{"type":"Point","coordinates":[-51.179802,-30.212715]},"properties":{"stop_id":"174","stop_name":"Heitor Vieira 864 ","stop_code":null}},{"type":"Feature","geometry":{"type":"Point","coordinates":[-51.12649,-30.02328]},"properties":{"stop_id":"3468","stop_name":"I Jardim Passo Das Pedras Ii Al 398 ","stop_code":null}},{"type":"Feature","geometry":{"type":"Point","coordinates":[-51.210983,-30.069441]},"properties":{"stop_id":"1722","stop_name":"Gen Gomes Carneiro 608 ","stop_code":null}},{"type":"Feature","geometry":{"type":"Point","coordinates":[-51.126459,-30.021781]},"properties":{"stop_id":"3470","stop_name":"Sebastiao Barreto 275 ","stop_code":null}},{"type":"Feature","geometry":{"type":"Point","coordinates":[-51.20772,-30.043019]},"properties":{"stop_id":"6906","stop_name":"Ramiro Barcelos Al 2600 ","stop_code":null}},{"type":"Feature","geometry":{"type":"Point","coordinates":[-51.132964,-29.99034]},"properties":{"stop_id":"6905","stop_name":"Toledo Piza Df 24 ","stop_code":null}},{"type":"Feature","geometry":{"type":"Point","coordinates":[-51.17166,-30.094935]},"properties":{"stop_id":"2473","stop_name":"Canudos 349 ","stop_code":null}},{"type":"Feature","geometry":{"type":"Point","coordinates":[-51.125348,-30.199615]},"properties":{"stop_id":"371","stop_name":"Edgar Pires De Castro Df 9905 ","stop_code":null}},{"type":"Feature","geometry":{"type":"Point","coordinates":[-51.250339,-30.106038]},"properties":{"stop_id":"560","stop_name":"Dr Barcelos 889 ","stop_code":null}},{"type":"Feature","geometry":{"type":"Point","coordinates":[-51.248423,-30.105388]},"properties":{"stop_id":"755","stop_name":"Dr Barcelos 1071 ","stop_code":null}},{"type":"Feature","geometry":{"type":"Point","coordinates":[-51.2222,-30.053477]},"properties":{"stop_id":"1491","stop_name":"Getulio Vargas 1000 ","stop_code":null}},{"type":"Feature","geometry":{"type":"Point","coordinates":[-51.21343,-30.090686]},"properties":{"stop_id":"1228","stop_name":"Cel Ruy Da Cunha Paim Al 34 ","stop_code":null}},{"type":"Feature","geometry":{"type":"Point","coordinates":[-51.163253,-30.020423]},"properties":{"stop_id":"3072","stop_name":"Cipo 64 ","stop_code":null}},{"type":"Feature","geometry":{"type":"Point","coordinates":[-51.139146,-30.159134]},"properties":{"stop_id":"6904","stop_name":"Belize Df 430 ","stop_code":null}},{"type":"Feature","geometry":{"type":"Point","coordinates":[-51.138691,-30.027711]},"properties":{"stop_id":"3358","stop_name":"Dezenove De Abril Df 85 Lar Dos Velhos Dr Mauricio Seligman","stop_code":null}},{"type":"Feature","geometry":{"type":"Point","coordinates":[-51.135987,-30.016389]},"properties":{"stop_id":"6900","stop_name":"Dona Adda Mascarenhas De Moraes Df 633 ","stop_code":null}},{"type":"Feature","geometry":{"type":"Point","coordinates":[-51.228613,-30.041339]},"properties":{"stop_id":"1555","stop_name":"Borges De Medeiros 1565 Tj","stop_code":null}},{"type":"Feature","geometry":{"type":"Point","coordinates":[-51.228596,-30.041179]},"properties":{"stop_id":"1554","stop_name":"Borges De Medeiros 1555 Daer","stop_code":null}},{"type":"Feature","geometry":{"type":"Point","coordinates":[-51.217308,-30.103163]},"properties":{"stop_id":"6892","stop_name":"Aracaju 650 ","stop_code":null}},{"type":"Feature","geometry":{"type":"Point","coordinates":[-51.169947,-30.055958]},"properties":{"stop_id":"6026","stop_name":"Ipiranga  Esq. Prof Cristiano Fischer","stop_code":null}},{"type":"Feature","geometry":{"type":"Point","coordinates":[-51.175688,-30.057749]},"properties":{"stop_id":"6484","stop_name":"Ipiranga Ef Puc Cb ","stop_code":null}},{"type":"Feature","geometry":{"type":"Point","coordinates":[-51.224223,-30.036043]},"properties":{"stop_id":"1622","stop_name":"Gen Lima E Silva Df 251 ","stop_code":null}},{"type":"Feature","geometry":{"type":"Point","coordinates":[-51.174875,-30.057395]},"properties":{"stop_id":"2723","stop_name":"Ipiranga Paradão Puc Cb ","stop_code":null}},{"type":"Feature","geometry":{"type":"Point","coordinates":[-51.050538,-30.213839]},"properties":{"stop_id":"6903","stop_name":"Extrema Df Eeef Heitor V ","stop_code":null}},{"type":"Feature","geometry":{"type":"Point","coordinates":[-51.141872,-30.028841]},"properties":{"stop_id":"3352","stop_name":"Monsenhor Roncato Df 206 Praca","stop_code":null}},{"type":"Feature","geometry":{"type":"Point","coordinates":[-51.118532,-30.010926]},"properties":{"stop_id":"4178","stop_name":"Dante Angelo Pilla Ef Praça Praça","stop_code":null}},{"type":"Feature","geometry":{"type":"Point","coordinates":[-51.118644,-30.011111]},"properties":{"stop_id":"4177","stop_name":"Dante Angelo Pilla Ef Quadra Esport ","stop_code":null}},{"type":"Feature","geometry":{"type":"Point","coordinates":[-51.208017,-30.01291]},"properties":{"stop_id":"3534","stop_name":"Parque 280 ","stop_code":null}},{"type":"Feature","geometry":{"type":"Point","coordinates":[-51.130905,-29.984595]},"properties":{"stop_id":"4224","stop_name":"Faria Lobato 399 ","stop_code":null}},{"type":"Feature","geometry":{"type":"Point","coordinates":[-51.129993,-29.981182]},"properties":{"stop_id":"4275","stop_name":"Souza Melo 527 ","stop_code":null}},{"type":"Feature","geometry":{"type":"Point","coordinates":[-51.173298,-30.073843]},"properties":{"stop_id":"2650","stop_name":"Luiz Moschetti 930 ","stop_code":null}},{"type":"Feature","geometry":{"type":"Point","coordinates":[-51.146436,-30.056837]},"properties":{"stop_id":"6899","stop_name":"Carvalho Df 442 ","stop_code":null}},{"type":"Feature","geometry":{"type":"Point","coordinates":[-51.152929,-30.10791]},"properties":{"stop_id":"6743","stop_name":"Afonso Lourenco Mariante Df 3200 ","stop_code":null}},{"type":"Feature","geometry":{"type":"Point","coordinates":[-51.152997,-30.107875]},"properties":{"stop_id":"2494","stop_name":"Afonso Lourenco Mariante 3200 ","stop_code":null}},{"type":"Feature","geometry":{"type":"Point","coordinates":[-51.234561,-30.082298]},"properties":{"stop_id":"6898","stop_name":"Jaguari Al 160 ","stop_code":null}},{"type":"Feature","geometry":{"type":"Point","coordinates":[-51.156543,-30.009564]},"properties":{"stop_id":"3894","stop_name":"Bernardi 56 ","stop_code":null}},{"type":"Feature","geometry":{"type":"Point","coordinates":[-51.128204,-29.992195]},"properties":{"stop_id":"4212","stop_name":"Oliveira Lopes 65 ","stop_code":null}},{"type":"Feature","geometry":{"type":"Point","coordinates":[-51.128083,-30.008749]},"properties":{"stop_id":"6273","stop_name":"Sertorio 9990 ","stop_code":null}},{"type":"Feature","geometry":{"type":"Point","coordinates":[-51.128163,-30.008724]},"properties":{"stop_id":"6274","stop_name":"Sertorio Df 9990 ","stop_code":null}},{"type":"Feature","geometry":{"type":"Point","coordinates":[-51.166634,-30.113846]},"properties":{"stop_id":"2476","stop_name":"Afonso Lourenco Mariante Df 1111 ","stop_code":null}},{"type":"Feature","geometry":{"type":"Point","coordinates":[-51.165168,-29.988144]},"properties":{"stop_id":"6353","stop_name":"Severo Dullius Ef Emp Fueltech ","stop_code":null}},{"type":"Feature","geometry":{"type":"Point","coordinates":[-51.167081,-29.988592]},"properties":{"stop_id":"6354","stop_name":"Severo Dullius 1165 ","stop_code":null}},{"type":"Feature","geometry":{"type":"Point","coordinates":[-51.227665,-30.16311]},"properties":{"stop_id":"5523","stop_name":"D Vila Do Sargento Df 377 Posto Saude","stop_code":null}},{"type":"Feature","geometry":{"type":"Point","coordinates":[-51.135169,-30.093397]},"properties":{"stop_id":"2564","stop_name":"Sao Francisco 1267 Lanches Laricas","stop_code":null}},{"type":"Feature","geometry":{"type":"Point","coordinates":[-51.160593,-30.074825]},"properties":{"stop_id":"2744","stop_name":"Nove De Junho Df 1405 Campo De Futebol","stop_code":null}},{"type":"Feature","geometry":{"type":"Point","coordinates":[-51.093999,-30.020795]},"properties":{"stop_id":"6857","stop_name":"Irmao Faustino Joao 994 ","stop_code":null}},{"type":"Feature","geometry":{"type":"Point","coordinates":[-51.099748,-30.019076]},"properties":{"stop_id":"6855","stop_name":"Antonio Severino 700 ","stop_code":null}},{"type":"Feature","geometry":{"type":"Point","coordinates":[-51.204413,-30.070175]},"properties":{"stop_id":"1752","stop_name":"Prof Oscar Pereira 2248 ","stop_code":null}},{"type":"Feature","geometry":{"type":"Point","coordinates":[-51.100327,-30.019082]},"properties":{"stop_id":"4765","stop_name":"Antonio Severino 509 ","stop_code":null}},{"type":"Feature","geometry":{"type":"Point","coordinates":[-51.126339,-29.984272]},"properties":{"stop_id":"6545","stop_name":"Faria Lobato Al 904 ","stop_code":null}},{"type":"Feature","geometry":{"type":"Point","coordinates":[-51.036816,-30.213712]},"properties":{"stop_id":"4452","stop_name":"Armando Inacio Da Silveira Df 2247 ","stop_code":null}},{"type":"Feature","geometry":{"type":"Point","coordinates":[-51.190367,-30.132455]},"properties":{"stop_id":"5961","stop_name":"Maurilio Ferreira Df 691 ","stop_code":null}},{"type":"Feature","geometry":{"type":"Point","coordinates":[-51.190359,-30.132577]},"properties":{"stop_id":"1172","stop_name":"Maurilio Ferreira 671 ","stop_code":null}},{"type":"Feature","geometry":{"type":"Point","coordinates":[-51.192842,-30.135297]},"properties":{"stop_id":"1167","stop_name":"Maurilio Ferreira 350 ","stop_code":null}},{"type":"Feature","geometry":{"type":"Point","coordinates":[-51.19285,-30.135412]},"properties":{"stop_id":"1166","stop_name":"Um Rua Maurilio Ferreira 411 ","stop_code":null}},{"type":"Feature","geometry":{"type":"Point","coordinates":[-51.096229,-29.997435]},"properties":{"stop_id":"4970","stop_name":"Maias Al 1147 ","stop_code":null}},{"type":"Feature","geometry":{"type":"Point","coordinates":[-51.205363,-30.027767]},"properties":{"stop_id":"5495","stop_name":"Vinte Quatro De Outubro 200 ","stop_code":null}},{"type":"Feature","geometry":{"type":"Point","coordinates":[-51.14155,-29.997779]},"properties":{"stop_id":"4097","stop_name":"Sertorio 6767 Leroy Merlin","stop_code":null}},{"type":"Feature","geometry":{"type":"Point","coordinates":[-51.186878,-30.002631]},"properties":{"stop_id":"3647","stop_name":"Sertorio Df 1789 ","stop_code":null}},{"type":"Feature","geometry":{"type":"Point","coordinates":[-51.200599,-29.999665]},"properties":{"stop_id":"3582","stop_name":"Sertorio Df 492 Senai","stop_code":null}},{"type":"Feature","geometry":{"type":"Point","coordinates":[-51.151102,-30.032944]},"properties":{"stop_id":"3057","stop_name":"Saturnino De Brito 1035 ","stop_code":null}},{"type":"Feature","geometry":{"type":"Point","coordinates":[-51.151181,-30.033202]},"properties":{"stop_id":"3058","stop_name":"Saturnino De Brito 978 ","stop_code":null}},{"type":"Feature","geometry":{"type":"Point","coordinates":[-51.208395,-30.029888]},"properties":{"stop_id":"2186","stop_name":"Ramiro Barcelos 1274 ","stop_code":null}},{"type":"Feature","geometry":{"type":"Point","coordinates":[-51.243207,-30.077085]},"properties":{"stop_id":"1326","stop_name":"Pinheiro Borda Df 339 ","stop_code":null}},{"type":"Feature","geometry":{"type":"Point","coordinates":[-51.226464,-30.037662]},"properties":{"stop_id":"1580","stop_name":"Loureiro Da Silva 1520 Refrigeracao Consertos","stop_code":null}},{"type":"Feature","geometry":{"type":"Point","coordinates":[-51.213687,-30.044479]},"properties":{"stop_id":"5839","stop_name":"Joao Pessoa Ef Pça Piratini Próximo Rua Laurindo","stop_code":null}},{"type":"Feature","geometry":{"type":"Point","coordinates":[-51.164263,-30.055992]},"properties":{"stop_id":"2790","stop_name":"Ipiranga 7001 7001 Moveis","stop_code":null}},{"type":"Feature","geometry":{"type":"Point","coordinates":[-51.209649,-30.035355]},"properties":{"stop_id":"2114","stop_name":"Felipe Camarao 706 ","stop_code":null}},{"type":"Feature","geometry":{"type":"Point","coordinates":[-51.191412,-30.024318]},"properties":{"stop_id":"2348","stop_name":"Eudoro Berlink 623 ","stop_code":null}},{"type":"Feature","geometry":{"type":"Point","coordinates":[-51.197459,-30.024908]},"properties":{"stop_id":"2304","stop_name":"Eudoro Berlink 77 ","stop_code":null}},{"type":"Feature","geometry":{"type":"Point","coordinates":[-51.218338,-30.055046]},"properties":{"stop_id":"5488","stop_name":"Erico Verissimo Df 1132 No Passeio","stop_code":null}},{"type":"Feature","geometry":{"type":"Point","coordinates":[-51.162386,-30.027956]},"properties":{"stop_id":"6526","stop_name":"Dr Nilo Pecanha Ef S.c. Iguatemi Shopping Iguatemi","stop_code":null}},{"type":"Feature","geometry":{"type":"Point","coordinates":[-51.218913,-30.034409]},"properties":{"stop_id":"1631","stop_name":"Eng Luiz Englert Sn Faculdade De Engenharia Da Ufrgs","stop_code":null}},{"type":"Feature","geometry":{"type":"Point","coordinates":[-51.179247,-29.980422]},"properties":{"stop_id":"3981","stop_name":"Estados Df 1909 ","stop_code":null}},{"type":"Feature","geometry":{"type":"Point","coordinates":[-51.153003,-30.011851]},"properties":{"stop_id":"3904","stop_name":"Forte 164 ","stop_code":null}},{"type":"Feature","geometry":{"type":"Point","coordinates":[-51.194412,-30.031555]},"properties":{"stop_id":"2305","stop_name":"Cel Lucas De Oliveira Df 1025 Ceaser Tower","stop_code":null}},{"type":"Feature","geometry":{"type":"Point","coordinates":[-51.186717,-30.031386]},"properties":{"stop_id":"5346","stop_name":"Carlos Trein Filho Df 1150 ","stop_code":null}},{"type":"Feature","geometry":{"type":"Point","coordinates":[-51.174789,-30.036775]},"properties":{"stop_id":"5345","stop_name":"Carlos Gomes 1999 ","stop_code":null}},{"type":"Feature","geometry":{"type":"Point","coordinates":[-51.117918,-30.071822]},"properties":{"stop_id":"4632","stop_name":"Campus Ufrgs - Agronomia Sn Anel Viario","stop_code":null}},{"type":"Feature","geometry":{"type":"Point","coordinates":[-51.210926,-30.051089]},"properties":{"stop_id":"5340","stop_name":"Bento Goncalves 215 Df Terminal Azenha","stop_code":null}},{"type":"Feature","geometry":{"type":"Point","coordinates":[-51.183769,-30.023417]},"properties":{"stop_id":"5061","stop_name":"Carlos Gomes 111 ","stop_code":null}},{"type":"Feature","geometry":{"type":"Point","coordinates":[-51.18546,-30.020718]},"properties":{"stop_id":"2362","stop_name":"Augusto Meyer 145 ","stop_code":null}},{"type":"Feature","geometry":{"type":"Point","coordinates":[-51.114615,-29.977909]},"properties":{"stop_id":"5020","stop_name":"Assis Brasil 9216 ","stop_code":null}},{"type":"Feature","geometry":{"type":"Point","coordinates":[-51.132492,-29.999163]},"properties":{"stop_id":"4192","stop_name":"Assis Brasil 5908 ","stop_code":null}},{"type":"Feature","geometry":{"type":"Point","coordinates":[-51.180242,-30.008664]},"properties":{"stop_id":"5470","stop_name":"Assis Brasil 545 ","stop_code":null}},{"type":"Feature","geometry":{"type":"Point","coordinates":[-51.186539,-30.026586]},"properties":{"stop_id":"2345","stop_name":"Anita Garibaldi Df 916 ","stop_code":null}},{"type":"Feature","geometry":{"type":"Point","coordinates":[-51.174936,-30.022634]},"properties":{"stop_id":"2960","stop_name":"Anita Garibaldi Al 2099 ","stop_code":null}},{"type":"Feature","geometry":{"type":"Point","coordinates":[-51.161128,-30.026443]},"properties":{"stop_id":"5416","stop_name":"Antonio Carlos Berta 255 Jardim Europa - Goldstein","stop_code":null}},{"type":"Feature","geometry":{"type":"Point","coordinates":[-51.139875,-30.16082]},"properties":{"stop_id":"6793","stop_name":"Martinica 322 ","stop_code":null}},{"type":"Feature","geometry":{"type":"Point","coordinates":[-51.139847,-30.160889]},"properties":{"stop_id":"5203","stop_name":"Martinica 341 ","stop_code":null}},{"type":"Feature","geometry":{"type":"Point","coordinates":[-51.137042,-30.030938]},"properties":{"stop_id":"3361","stop_name":"Alberto Pasqualini 984 ","stop_code":null}},{"type":"Feature","geometry":{"type":"Point","coordinates":[-51.207326,-30.058083]},"properties":{"stop_id":"1815","stop_name":"Moyses Antunes Da Cunha Esq Carlos Pesso Fundos Condominio","stop_code":null}},{"type":"Feature","geometry":{"type":"Point","coordinates":[-51.183995,-30.067893]},"properties":{"stop_id":"1973","stop_name":"Silvado Df 338 ","stop_code":null}},{"type":"Feature","geometry":{"type":"Point","coordinates":[-51.183882,-30.067858]},"properties":{"stop_id":"1972","stop_name":"Silvado 320 ","stop_code":null}},{"type":"Feature","geometry":{"type":"Point","coordinates":[-51.155345,-30.016945]},"properties":{"stop_id":"3127","stop_name":"Adao Baino Df 701 ","stop_code":null}},{"type":"Feature","geometry":{"type":"Point","coordinates":[-51.189495,-29.980266]},"properties":{"stop_id":"3727","stop_name":"Palmira Gobbi 820 ","stop_code":null}},{"type":"Feature","geometry":{"type":"Point","coordinates":[-51.240211,-30.101871]},"properties":{"stop_id":"810","stop_name":"Camaqua 265 ","stop_code":null}},{"type":"Feature","geometry":{"type":"Point","coordinates":[-51.217794,-30.121482]},"properties":{"stop_id":"728","stop_name":"Monte Cristo Al 820 ","stop_code":null}},{"type":"Feature","geometry":{"type":"Point","coordinates":[-51.233822,-30.08566]},"properties":{"stop_id":"889","stop_name":"Comandai 117 ","stop_code":null}},{"type":"Feature","geometry":{"type":"Point","coordinates":[-51.158982,-30.017333]},"properties":{"stop_id":"3123","stop_name":"Francisco Trein Df 707 ","stop_code":null}},{"type":"Feature","geometry":{"type":"Point","coordinates":[-51.226659,-30.026636]},"properties":{"stop_id":"5214","stop_name":"Julio De Castilhos Al 23 ","stop_code":null}},{"type":"Feature","geometry":{"type":"Point","coordinates":[-51.225494,-30.026271]},"properties":{"stop_id":"6860","stop_name":"Julio De Castilhos Al 131 ","stop_code":null}},{"type":"Feature","geometry":{"type":"Point","coordinates":[-51.228799,-30.026602]},"properties":{"stop_id":"5701","stop_name":"Borges De Medeiros  Bombeiros","stop_code":null}},{"type":"Feature","geometry":{"type":"Point","coordinates":[-51.22866,-30.026927]},"properties":{"stop_id":"5705","stop_name":"Borges De Medeiros  Bombeiros","stop_code":null}},{"type":"Feature","geometry":{"type":"Point","coordinates":[-51.227186,-30.027689]},"properties":{"stop_id":"5078","stop_name":"Pereira Parobe 141 ","stop_code":null}},{"type":"Feature","geometry":{"type":"Point","coordinates":[-51.22723,-30.027563]},"properties":{"stop_id":"5087","stop_name":"Pereira Parobe 147 ","stop_code":null}},{"type":"Feature","geometry":{"type":"Point","coordinates":[-51.227273,-30.027438]},"properties":{"stop_id":"5255","stop_name":"Pereira Parobe  Mercado Público","stop_code":null}},{"type":"Feature","geometry":{"type":"Point","coordinates":[-51.227338,-30.027257]},"properties":{"stop_id":"5256","stop_name":"Pereira Parobe  Mercado Publico","stop_code":null}},{"type":"Feature","geometry":{"type":"Point","coordinates":[-51.226695,-30.027384]},"properties":{"stop_id":"5273","stop_name":"Pereira Parobe  ","stop_code":null}},{"type":"Feature","geometry":{"type":"Point","coordinates":[-51.226721,-30.027258]},"properties":{"stop_id":"5272","stop_name":"Pereira Parobe  ","stop_code":null}},{"type":"Feature","geometry":{"type":"Point","coordinates":[-51.226746,-30.027132]},"properties":{"stop_id":"5271","stop_name":"Pereira Parobe  ","stop_code":null}},{"type":"Feature","geometry":{"type":"Point","coordinates":[-51.226819,-30.026764]},"properties":{"stop_id":"5254","stop_name":"Pereira Parobe  Plataforma Pereira Parobe","stop_code":null}},{"type":"Feature","geometry":{"type":"Point","coordinates":[-51.22677,-30.027012]},"properties":{"stop_id":"5270","stop_name":"Pereira Parobe  ","stop_code":null}},{"type":"Feature","geometry":{"type":"Point","coordinates":[-51.226797,-30.026874]},"properties":{"stop_id":"5269","stop_name":"Pereira Parobe  ","stop_code":null}},{"type":"Feature","geometry":{"type":"Point","coordinates":[-51.189205,-30.211031]},"properties":{"stop_id":"5914","stop_name":"Beira Rio Df Esq R Des Mel Esq. Des. Mello Guimarães","stop_code":null}},{"type":"Feature","geometry":{"type":"Point","coordinates":[-51.188291,-30.210488]},"properties":{"stop_id":"5994","stop_name":"Beira Rio 175 ","stop_code":null}},{"type":"Feature","geometry":{"type":"Point","coordinates":[-51.187316,-30.210143]},"properties":{"stop_id":"84","stop_name":"Beira Rio Df 127 Praça","stop_code":null}},{"type":"Feature","geometry":{"type":"Point","coordinates":[-51.187315,-30.209758]},"properties":{"stop_id":"6845","stop_name":"Euclides Goulart Al 200 ","stop_code":null}},{"type":"Feature","geometry":{"type":"Point","coordinates":[-51.139989,-30.155043]},"properties":{"stop_id":"458","stop_name":"Joao Antonio Silveira 1911 ","stop_code":null}},{"type":"Feature","geometry":{"type":"Point","coordinates":[-51.158228,-30.009105]},"properties":{"stop_id":"3892","stop_name":"Domingos Martins Df 885 ","stop_code":null}},{"type":"Feature","geometry":{"type":"Point","coordinates":[-51.101968,-30.109645]},"properties":{"stop_id":"4609","stop_name":"Taquara Df 1572 ","stop_code":null}},{"type":"Feature","geometry":{"type":"Point","coordinates":[-51.175234,-30.056961]},"properties":{"stop_id":"2712","stop_name":"Ipiranga Paradão Puc Bc ","stop_code":null}},{"type":"Feature","geometry":{"type":"Point","coordinates":[-51.144316,-30.049872]},"properties":{"stop_id":"3190","stop_name":"Antonio Carvalho 2189 ","stop_code":null}},{"type":"Feature","geometry":{"type":"Point","coordinates":[-51.144852,-30.047951]},"properties":{"stop_id":"3235","stop_name":"Bom Principio 48 ","stop_code":null}},{"type":"Feature","geometry":{"type":"Point","coordinates":[-51.144858,-30.049098]},"properties":{"stop_id":"3191","stop_name":"Eng Jose Angelo Bettega Cassol 170 ","stop_code":null}},{"type":"Feature","geometry":{"type":"Point","coordinates":[-51.160954,-30.028073]},"properties":{"stop_id":"6897","stop_name":"Dr Nilo Pecanha Df R Antonio C B ","stop_code":null}},{"type":"Feature","geometry":{"type":"Point","coordinates":[-51.227741,-30.032248]},"properties":{"stop_id":"5403","stop_name":"Borges De Medeiros 646 ","stop_code":null}},{"type":"Feature","geometry":{"type":"Point","coordinates":[-51.118589,-30.008946]},"properties":{"stop_id":"4179","stop_name":"Silvestre Felix Rodrigues 970 ","stop_code":null}},{"type":"Feature","geometry":{"type":"Point","coordinates":[-51.155181,-30.010519]},"properties":{"stop_id":"3893","stop_name":"Dom Diogo De Souza Df 36 ","stop_code":null}},{"type":"Feature","geometry":{"type":"Point","coordinates":[-51.226227,-30.157707]},"properties":{"stop_id":"24","stop_name":"Guaiba 3132 ","stop_code":null}},{"type":"Feature","geometry":{"type":"Point","coordinates":[-51.110669,-29.985614]},"properties":{"stop_id":"4865","stop_name":"Caldeia Sn ","stop_code":null}},{"type":"Feature","geometry":{"type":"Point","coordinates":[-51.17599,-30.130304]},"properties":{"stop_id":"2390","stop_name":"Costa Gama Df 1606 ","stop_code":null}},{"type":"Feature","geometry":{"type":"Point","coordinates":[-51.228158,-30.065633]},"properties":{"stop_id":"6443","stop_name":"Dona Augusta 628 ","stop_code":null}},{"type":"Feature","geometry":{"type":"Point","coordinates":[-51.226926,-30.063209]},"properties":{"stop_id":"6442","stop_name":"Dona Augusta 366 ","stop_code":null}},{"type":"Feature","geometry":{"type":"Point","coordinates":[-51.226382,-30.061436]},"properties":{"stop_id":"6441","stop_name":"Dona Augusta Al 180 ","stop_code":null}},{"type":"Feature","geometry":{"type":"Point","coordinates":[-51.226124,-30.06023]},"properties":{"stop_id":"6440","stop_name":"Dona Augusta 14 ","stop_code":null}},{"type":"Feature","geometry":{"type":"Point","coordinates":[-51.212513,-30.119247]},"properties":{"stop_id":"6342","stop_name":"Monte Cristo 456 ","stop_code":null}},{"type":"Feature","geometry":{"type":"Point","coordinates":[-51.222912,-30.123871]},"properties":{"stop_id":"6493","stop_name":"Monte Cristo Df 1307 ","stop_code":null}},{"type":"Feature","geometry":{"type":"Point","coordinates":[-51.114216,-29.995901]},"properties":{"stop_id":"6896","stop_name":"Willy Eugenio Fleck Ef Braspress ","stop_code":null}},{"type":"Feature","geometry":{"type":"Point","coordinates":[-51.113589,-29.996392]},"properties":{"stop_id":"4843","stop_name":"Plinio Kroeff 1755 ","stop_code":null}},{"type":"Feature","geometry":{"type":"Point","coordinates":[-51.221899,-30.104238]},"properties":{"stop_id":"6895","stop_name":"Aracaju 95 ","stop_code":null}},{"type":"Feature","geometry":{"type":"Point","coordinates":[-51.222349,-30.104402]},"properties":{"stop_id":"6894","stop_name":"Aracaju 40 ","stop_code":null}},{"type":"Feature","geometry":{"type":"Point","coordinates":[-51.217112,-30.103229]},"properties":{"stop_id":"6893","stop_name":"Aracaju 643 ","stop_code":null}},{"type":"Feature","geometry":{"type":"Point","coordinates":[-51.21497,-30.024987]},"properties":{"stop_id":"6890","stop_name":"Farrapos Al 507 ","stop_code":null}},{"type":"Feature","geometry":{"type":"Point","coordinates":[-51.210377,-30.021987]},"properties":{"stop_id":"6889","stop_name":"Gaspar Martins Df 482 ","stop_code":null}},{"type":"Feature","geometry":{"type":"Point","coordinates":[-51.213945,-30.023984]},"properties":{"stop_id":"6891","stop_name":"Farrapos 637 ","stop_code":null}},{"type":"Feature","geometry":{"type":"Point","coordinates":[-51.220723,-30.026522]},"properties":{"stop_id":"5620","stop_name":"Voluntarios Da Patria 584 ","stop_code":null}},{"type":"Feature","geometry":{"type":"Point","coordinates":[-51.227747,-30.031082]},"properties":{"stop_id":"5355","stop_name":"Borges De Medeiros 521 ","stop_code":null}},{"type":"Feature","geometry":{"type":"Point","coordinates":[-51.227663,-30.031036]},"properties":{"stop_id":"5359","stop_name":"Borges De Medeiros 512 Brasiltelecom","stop_code":null}},{"type":"Feature","geometry":{"type":"Point","coordinates":[-51.226995,-30.026209]},"properties":{"stop_id":"5215","stop_name":"Visconde Do Cairu  Estação Mercado","stop_code":null}},{"type":"Feature","geometry":{"type":"Point","coordinates":[-51.105329,-30.041281]},"properties":{"stop_id":"5175","stop_name":"Protasio Alves 10835 ","stop_code":null}},{"type":"Feature","geometry":{"type":"Point","coordinates":[-51.226958,-30.026316]},"properties":{"stop_id":"5221","stop_name":"Visconde Do Cairu  Estação Mercado","stop_code":null}},{"type":"Feature","geometry":{"type":"Point","coordinates":[-51.105405,-30.041185]},"properties":{"stop_id":"5176","stop_name":"Protasio Alves 10820 ","stop_code":null}},{"type":"Feature","geometry":{"type":"Point","coordinates":[-51.112512,-29.99358]},"properties":{"stop_id":"6888","stop_name":"Plinio Kroeff Df 2040 ","stop_code":null}},{"type":"Feature","geometry":{"type":"Point","coordinates":[-51.112598,-29.993745]},"properties":{"stop_id":"6887","stop_name":"Plinio Kroeff 2030 ","stop_code":null}},{"type":"Feature","geometry":{"type":"Point","coordinates":[-51.173504,-30.093863]},"properties":{"stop_id":"2475","stop_name":"Canudos Df 385 ","stop_code":null}},{"type":"Feature","geometry":{"type":"Point","coordinates":[-51.227113,-30.108338]},"properties":{"stop_id":"918","stop_name":"Cavalhada 3800 ","stop_code":null}},{"type":"Feature","geometry":{"type":"Point","coordinates":[-51.180748,-29.978533]},"properties":{"stop_id":"6886","stop_name":"Ernesto Neugebauer Sn ","stop_code":null}},{"type":"Feature","geometry":{"type":"Point","coordinates":[-51.092329,-30.190015]},"properties":{"stop_id":"6882","stop_name":"Passo Da Taquara 80 ","stop_code":null}},{"type":"Feature","geometry":{"type":"Point","coordinates":[-51.179884,-29.976052]},"properties":{"stop_id":"6885","stop_name":"Jose Pedro Boessio Al 114 ","stop_code":null}},{"type":"Feature","geometry":{"type":"Point","coordinates":[-51.146345,-30.026902]},"properties":{"stop_id":"3329","stop_name":"Benno Mentz 1785 ","stop_code":null}},{"type":"Feature","geometry":{"type":"Point","coordinates":[-51.210256,-30.089069]},"properties":{"stop_id":"1246","stop_name":"Taveira Junior Al 507 ","stop_code":null}},{"type":"Feature","geometry":{"type":"Point","coordinates":[-51.21019,-30.089023]},"properties":{"stop_id":"1247","stop_name":"Taveira Junior Df 507 ","stop_code":null}},{"type":"Feature","geometry":{"type":"Point","coordinates":[-51.121989,-30.087898]},"properties":{"stop_id":"2615","stop_name":"Dolores Duran 1477 Condomínio Atmosfera","stop_code":null}},{"type":"Feature","geometry":{"type":"Point","coordinates":[-51.163895,-30.020542]},"properties":{"stop_id":"3077","stop_name":"Joao Wallig 929 ","stop_code":null}},{"type":"Feature","geometry":{"type":"Point","coordinates":[-51.122072,-30.086583]},"properties":{"stop_id":"2616","stop_name":"Dolores Duran 1651 ","stop_code":null}},{"type":"Feature","geometry":{"type":"Point","coordinates":[-51.097429,-30.116349]},"properties":{"stop_id":"4567","stop_name":"Sao Marcos-lomba Do Pinheiro Df 317 Praca","stop_code":null}},{"type":"Feature","geometry":{"type":"Point","coordinates":[-51.117368,-30.203216]},"properties":{"stop_id":"4353","stop_name":"Edgar Pires De Castro 10300 ","stop_code":null}},{"type":"Feature","geometry":{"type":"Point","coordinates":[-51.22429,-30.025698]},"properties":{"stop_id":"5368","stop_name":"Rui Barbosa  Cpc","stop_code":null}},{"type":"Feature","geometry":{"type":"Point","coordinates":[-51.224098,-30.026255]},"properties":{"stop_id":"5830","stop_name":"Rui Barbosa  Cpc","stop_code":null}},{"type":"Feature","geometry":{"type":"Point","coordinates":[-51.108513,-30.02364]},"properties":{"stop_id":"6679","stop_name":"Dr Vargas Neto Df R. Missouri ","stop_code":null}},{"type":"Feature","geometry":{"type":"Point","coordinates":[-51.108237,-29.988809]},"properties":{"stop_id":"4888","stop_name":"Jose Ferreira Jardim 354 ","stop_code":null}},{"type":"Feature","geometry":{"type":"Point","coordinates":[-51.177708,-29.972024]},"properties":{"stop_id":"6884","stop_name":"Ernesto Neugebauer Al 2470 ","stop_code":null}},{"type":"Feature","geometry":{"type":"Point","coordinates":[-51.227295,-30.027133]},"properties":{"stop_id":"5276","stop_name":"Pereira Parobe  ","stop_code":null}},{"type":"Feature","geometry":{"type":"Point","coordinates":[-51.222931,-30.109622]},"properties":{"stop_id":"952","stop_name":"Joao Vedana 440 ","stop_code":null}},{"type":"Feature","geometry":{"type":"Point","coordinates":[-51.177209,-30.019147]},"properties":{"stop_id":"5088","stop_name":"Plinio Brasil Milano Praça ","stop_code":null}},{"type":"Feature","geometry":{"type":"Point","coordinates":[-51.142955,-29.999393]},"properties":{"stop_id":"4092","stop_name":"Beberibe Al 35 ","stop_code":null}},{"type":"Feature","geometry":{"type":"Point","coordinates":[-51.129264,-30.144091]},"properties":{"stop_id":"6461","stop_name":"Sete Mil Cento Vinte Um  Df Hospital Restinga","stop_code":null}},{"type":"Feature","geometry":{"type":"Point","coordinates":[-51.122424,-30.082519]},"properties":{"stop_id":"2611","stop_name":"Dolores Duran 959/925 ","stop_code":null}},{"type":"Feature","geometry":{"type":"Point","coordinates":[-51.123322,-29.983029]},"properties":{"stop_id":"6883","stop_name":"Gabriel Franco Da Luz Esq R. Joao M Cb ","stop_code":null}},{"type":"Feature","geometry":{"type":"Point","coordinates":[-51.186001,-30.040761]},"properties":{"stop_id":"2286","stop_name":"Bage Al 414 ","stop_code":null}},{"type":"Feature","geometry":{"type":"Point","coordinates":[-51.138079,-30.094923]},"properties":{"stop_id":"2556","stop_name":"Santo Dias Da Silva 1050 ","stop_code":null}},{"type":"Feature","geometry":{"type":"Point","coordinates":[-51.194581,-30.091548]},"properties":{"stop_id":"1291","stop_name":"Alpes 888 ","stop_code":null}},{"type":"Feature","geometry":{"type":"Point","coordinates":[-51.226996,-30.074756]},"properties":{"stop_id":"1359","stop_name":"Dormenio 49/51 ","stop_code":null}},{"type":"Feature","geometry":{"type":"Point","coordinates":[-51.212453,-30.015418]},"properties":{"stop_id":"3519","stop_name":"Voluntarios Da Patria Df 2083 ","stop_code":null}},{"type":"Feature","geometry":{"type":"Point","coordinates":[-51.142842,-30.023182]},"properties":{"stop_id":"3342","stop_name":"Paul Harris 760 ","stop_code":null}},{"type":"Feature","geometry":{"type":"Point","coordinates":[-51.14303,-30.023685]},"properties":{"stop_id":"3343","stop_name":"Paul Harris 803 ","stop_code":null}},{"type":"Feature","geometry":{"type":"Point","coordinates":[-51.162233,-30.015224]},"properties":{"stop_id":"3851","stop_name":"Umbu 701 ","stop_code":null}},{"type":"Feature","geometry":{"type":"Point","coordinates":[-51.135683,-30.096552]},"properties":{"stop_id":"2559","stop_name":"Santo Dias Da Silva Df 844 ","stop_code":null}},{"type":"Feature","geometry":{"type":"Point","coordinates":[-51.135861,-30.096555]},"properties":{"stop_id":"2558","stop_name":"Santo Dias Da Silva Al 844 ","stop_code":null}},{"type":"Feature","geometry":{"type":"Point","coordinates":[-51.21643,-30.070145]},"properties":{"stop_id":"1422","stop_name":"Prof Manoel Lobato 172 ","stop_code":null}},{"type":"Feature","geometry":{"type":"Point","coordinates":[-51.216612,-30.070239]},"properties":{"stop_id":"1421","stop_name":"Prof Manoel Lobato 151 Posto De Saude","stop_code":null}},{"type":"Feature","geometry":{"type":"Point","coordinates":[-51.117652,-30.008355]},"properties":{"stop_id":"4785","stop_name":"Dante Angelo Pilla Df 700 ","stop_code":null}},{"type":"Feature","geometry":{"type":"Point","coordinates":[-51.194359,-29.992892]},"properties":{"stop_id":"5822","stop_name":"Dona Teodora Al 1014 ","stop_code":null}},{"type":"Feature","geometry":{"type":"Point","coordinates":[-51.194284,-29.992996]},"properties":{"stop_id":"5823","stop_name":"Dona Teodora 1077 ","stop_code":null}},{"type":"Feature","geometry":{"type":"Point","coordinates":[-51.195607,-29.991518]},"properties":{"stop_id":"3672","stop_name":"A J Renner 580 ","stop_code":null}},{"type":"Feature","geometry":{"type":"Point","coordinates":[-51.116195,-30.003032]},"properties":{"stop_id":"4793","stop_name":"Plinio Kroeff Ef Transp Roma ","stop_code":null}},{"type":"Feature","geometry":{"type":"Point","coordinates":[-51.135095,-30.145911]},"properties":{"stop_id":"6881","stop_name":"Ricardo Leonidas Ribas 439 ","stop_code":null}},{"type":"Feature","geometry":{"type":"Point","coordinates":[-51.228835,-30.06636]},"properties":{"stop_id":"6445","stop_name":"Dona Sofia 113 ","stop_code":null}},{"type":"Feature","geometry":{"type":"Point","coordinates":[-51.103358,-30.042942]},"properties":{"stop_id":"5296","stop_name":"Protasio Alves Df 11040 Loteamento Jd. Do Verde","stop_code":null}},{"type":"Feature","geometry":{"type":"Point","coordinates":[-51.158324,-30.039314]},"properties":{"stop_id":"3037","stop_name":"Gen Barreto Viana Df 175 ","stop_code":null}},{"type":"Feature","geometry":{"type":"Point","coordinates":[-51.233738,-30.085677]},"properties":{"stop_id":"890","stop_name":"Comandai Al 100/Df 107 ","stop_code":null}},{"type":"Feature","geometry":{"type":"Point","coordinates":[-51.103278,-30.042922]},"properties":{"stop_id":"5295","stop_name":"Protasio Alves 11040 Loteamento Jd. Do Verde","stop_code":null}},{"type":"Feature","geometry":{"type":"Point","coordinates":[-51.12966,-29.984367]},"properties":{"stop_id":"6879","stop_name":"Vinte Um De Abril 940 ","stop_code":null}},{"type":"Feature","geometry":{"type":"Point","coordinates":[-51.129467,-29.99063]},"properties":{"stop_id":"6578","stop_name":"Minas Gerais 231 (Df 236) ","stop_code":null}},{"type":"Feature","geometry":{"type":"Point","coordinates":[-51.121366,-30.088673]},"properties":{"stop_id":"2614","stop_name":"Antonio Jose De Santana 10 ","stop_code":null}},{"type":"Feature","geometry":{"type":"Point","coordinates":[-51.129267,-29.987788]},"properties":{"stop_id":"4228","stop_name":"Martins Bastos 552 ","stop_code":null}},{"type":"Feature","geometry":{"type":"Point","coordinates":[-51.127669,-29.987699]},"properties":{"stop_id":"6324","stop_name":"Martins Bastos 692 ","stop_code":null}},{"type":"Feature","geometry":{"type":"Point","coordinates":[-51.107482,-30.010077]},"properties":{"stop_id":"6531","stop_name":"Delmar Rocha Barbosa 663 ","stop_code":null}},{"type":"Feature","geometry":{"type":"Point","coordinates":[-51.16033,-30.190746]},"properties":{"stop_id":"229","stop_name":"Francisca De Oliveira Vieira 2998 ","stop_code":null}},{"type":"Feature","geometry":{"type":"Point","coordinates":[-51.141475,-30.163387]},"properties":{"stop_id":"5855","stop_name":"Barro Vermelho 777 ","stop_code":null}},{"type":"Feature","geometry":{"type":"Point","coordinates":[-51.190159,-30.008261]},"properties":{"stop_id":"6878","stop_name":"Dom Pedro Ii 111 ","stop_code":null}},{"type":"Feature","geometry":{"type":"Point","coordinates":[-51.21814,-30.132995]},"properties":{"stop_id":"697","stop_name":"Eduardo Prado 1580 ","stop_code":null}},{"type":"Feature","geometry":{"type":"Point","coordinates":[-51.183772,-30.021681]},"properties":{"stop_id":"5478","stop_name":"Plinio Brasil Milano Df 757 ","stop_code":null}},{"type":"Feature","geometry":{"type":"Point","coordinates":[-51.239635,-30.082835]},"properties":{"stop_id":"879","stop_name":"Capivari Df 845 ","stop_code":null}},{"type":"Feature","geometry":{"type":"Point","coordinates":[-51.165908,-30.04274]},"properties":{"stop_id":"5663","stop_name":"Sao Benedito Df 256 ","stop_code":null}},{"type":"Feature","geometry":{"type":"Point","coordinates":[-51.196408,-30.161466]},"properties":{"stop_id":"6865","stop_name":"Dr Hermes Pacheco 405 ","stop_code":null}},{"type":"Feature","geometry":{"type":"Point","coordinates":[-51.135739,-29.991399]},"properties":{"stop_id":"4122","stop_name":"Gauchos 1250/260 ","stop_code":null}},{"type":"Feature","geometry":{"type":"Point","coordinates":[-51.17219,-30.04488]},"properties":{"stop_id":"2886","stop_name":"Prof Cristiano Fischer Df 590 ","stop_code":null}},{"type":"Feature","geometry":{"type":"Point","coordinates":[-51.121115,-30.017973]},"properties":{"stop_id":"6877","stop_name":"Deziderio Severino 345 ","stop_code":null}},{"type":"Feature","geometry":{"type":"Point","coordinates":[-51.14021,-30.166182]},"properties":{"stop_id":"400","stop_name":"Sandra Brea 300 ","stop_code":null}},{"type":"Feature","geometry":{"type":"Point","coordinates":[-51.142097,-30.038702]},"properties":{"stop_id":"6876","stop_name":"Ibanez Andre Pitthan Souza 250 ","stop_code":null}},{"type":"Feature","geometry":{"type":"Point","coordinates":[-51.141178,-30.03905]},"properties":{"stop_id":"3287","stop_name":"Irmao Inocencio Luis 495 ","stop_code":null}},{"type":"Feature","geometry":{"type":"Point","coordinates":[-51.141245,-30.037948]},"properties":{"stop_id":"6875","stop_name":"Irmao Inocencio Luis 539 ","stop_code":null}},{"type":"Feature","geometry":{"type":"Point","coordinates":[-51.139515,-30.163279]},"properties":{"stop_id":"5979","stop_name":"Barro Vermelho 955/Df 960 ","stop_code":null}},{"type":"Feature","geometry":{"type":"Point","coordinates":[-51.234968,-30.108881]},"properties":{"stop_id":"793","stop_name":"Landel De Moura 2592 ","stop_code":null}},{"type":"Feature","geometry":{"type":"Point","coordinates":[-51.137912,-30.04645]},"properties":{"stop_id":"6874","stop_name":"Souza Costa 540 ","stop_code":null}},{"type":"Feature","geometry":{"type":"Point","coordinates":[-51.139546,-30.049729]},"properties":{"stop_id":"6873","stop_name":"Souza Costa Sn ","stop_code":null}},{"type":"Feature","geometry":{"type":"Point","coordinates":[-51.139449,-30.049419]},"properties":{"stop_id":"6872","stop_name":"Souza Costa Sn ","stop_code":null}},{"type":"Feature","geometry":{"type":"Point","coordinates":[-51.14119,-30.051316]},"properties":{"stop_id":"6871","stop_name":"Dois Mil Setecentos Dezoito Df 755 ","stop_code":null}},{"type":"Feature","geometry":{"type":"Point","coordinates":[-51.140967,-30.051383]},"properties":{"stop_id":"6870","stop_name":"Dois Mil Setecentos Dezoito Nn 755 ","stop_code":null}},{"type":"Feature","geometry":{"type":"Point","coordinates":[-51.145544,-30.053279]},"properties":{"stop_id":"6869","stop_name":"Dois Mil Setecentos Dezoito Sn ","stop_code":null}},{"type":"Feature","geometry":{"type":"Point","coordinates":[-51.145389,-30.053218]},"properties":{"stop_id":"6868","stop_name":"Dois Mil Setecentos Dezoito Sn ","stop_code":null}},{"type":"Feature","geometry":{"type":"Point","coordinates":[-51.12983,-29.994694]},"properties":{"stop_id":"6867","stop_name":"Assis Brasil 6415 ","stop_code":null}},{"type":"Feature","geometry":{"type":"Point","coordinates":[-51.19681,-30.161847]},"properties":{"stop_id":"6866","stop_name":"Julio Dias De Souza Al 519 ","stop_code":null}},{"type":"Feature","geometry":{"type":"Point","coordinates":[-51.125085,-30.003522]},"properties":{"stop_id":"6864","stop_name":"Gen Raphael Zippin Al 100 ","stop_code":null}},{"type":"Feature","geometry":{"type":"Point","coordinates":[-51.127566,-30.003726]},"properties":{"stop_id":"4155","stop_name":"Sertorio Df 9460 ","stop_code":null}},{"type":"Feature","geometry":{"type":"Point","coordinates":[-51.127235,-30.003463]},"properties":{"stop_id":"6863","stop_name":"Gen Raphael Zippin Df 45 ","stop_code":null}},{"type":"Feature","geometry":{"type":"Point","coordinates":[-51.139568,-30.027767]},"properties":{"stop_id":"3357","stop_name":"Vinte Quatro De Agosto 61 ","stop_code":null}},{"type":"Feature","geometry":{"type":"Point","coordinates":[-51.206988,-30.119402]},"properties":{"stop_id":"6862","stop_name":"Catarino Andreatta Al 180 ","stop_code":null}},{"type":"Feature","geometry":{"type":"Point","coordinates":[-51.195129,-30.089846]},"properties":{"stop_id":"1292","stop_name":"Alpes 732 ","stop_code":null}},{"type":"Feature","geometry":{"type":"Point","coordinates":[-51.116586,-30.105107]},"properties":{"stop_id":"4583","stop_name":"Joao De Oliveira Remiao Df 3931 ","stop_code":null}},{"type":"Feature","geometry":{"type":"Point","coordinates":[-51.140784,-30.157518]},"properties":{"stop_id":"5791","stop_name":"Tobago Df 886 ","stop_code":null}},{"type":"Feature","geometry":{"type":"Point","coordinates":[-51.140916,-30.157575]},"properties":{"stop_id":"5185","stop_name":"Tobago Df 868 ","stop_code":null}},{"type":"Feature","geometry":{"type":"Point","coordinates":[-51.204838,-30.051603]},"properties":{"stop_id":"1847","stop_name":"Monsenhor Veras 31 ","stop_code":null}},{"type":"Feature","geometry":{"type":"Point","coordinates":[-51.230452,-30.066949]},"properties":{"stop_id":"1367","stop_name":"Hipolito Da Costa Al 30 ","stop_code":null}},{"type":"Feature","geometry":{"type":"Point","coordinates":[-51.144839,-30.029945]},"properties":{"stop_id":"3318","stop_name":"Alberto Pasqualini 250 ","stop_code":null}},{"type":"Feature","geometry":{"type":"Point","coordinates":[-51.241442,-30.088755]},"properties":{"stop_id":"849","stop_name":"Icarai Df 1174 ","stop_code":null}},{"type":"Feature","geometry":{"type":"Point","coordinates":[-51.240471,-30.085171]},"properties":{"stop_id":"875","stop_name":"Icarai 768 ","stop_code":null}},{"type":"Feature","geometry":{"type":"Point","coordinates":[-51.240925,-30.08667]},"properties":{"stop_id":"870","stop_name":"Icarai Df 920 ","stop_code":null}},{"type":"Feature","geometry":{"type":"Point","coordinates":[-51.241929,-30.090673]},"properties":{"stop_id":"842","stop_name":"Icarai Df 1368 Hipódromo","stop_code":null}},{"type":"Feature","geometry":{"type":"Point","coordinates":[-51.241848,-30.090691]},"properties":{"stop_id":"844","stop_name":"Icarai 1368 ","stop_code":null}},{"type":"Feature","geometry":{"type":"Point","coordinates":[-51.242764,-30.093243]},"properties":{"stop_id":"839","stop_name":"Icarai Al 1539 ","stop_code":null}},{"type":"Feature","geometry":{"type":"Point","coordinates":[-51.243409,-30.093964]},"properties":{"stop_id":"840","stop_name":"Icarai 1556 Bazar","stop_code":null}},{"type":"Feature","geometry":{"type":"Point","coordinates":[-51.24821,-30.098946]},"properties":{"stop_id":"765","stop_name":"Wenceslau Escobar 1012 ","stop_code":null}},{"type":"Feature","geometry":{"type":"Point","coordinates":[-51.248385,-30.099342]},"properties":{"stop_id":"766","stop_name":"Wenceslau Escobar 915-A ","stop_code":null}},{"type":"Feature","geometry":{"type":"Point","coordinates":[-51.225969,-30.026451]},"properties":{"stop_id":"5212","stop_name":"Julio De Castilhos 71 ","stop_code":null}},{"type":"Feature","geometry":{"type":"Point","coordinates":[-51.222965,-30.024893]},"properties":{"stop_id":"6861","stop_name":"Carlos Chagas 45 ","stop_code":null}},{"type":"Feature","geometry":{"type":"Point","coordinates":[-51.226225,-30.02652]},"properties":{"stop_id":"5213","stop_name":"Julio De Castilhos 53 ","stop_code":null}},{"type":"Feature","geometry":{"type":"Point","coordinates":[-51.226428,-30.026579]},"properties":{"stop_id":"1649","stop_name":"Julio De Castilhos 33 ","stop_code":null}},{"type":"Feature","geometry":{"type":"Point","coordinates":[-51.227557,-30.02661]},"properties":{"stop_id":"6859","stop_name":"Jose Carlos Dias De Oliveira  ","stop_code":null}},{"type":"Feature","geometry":{"type":"Point","coordinates":[-51.22761,-30.026438]},"properties":{"stop_id":"6858","stop_name":"Jose Carlos Dias De Oliveira  ","stop_code":null}},{"type":"Feature","geometry":{"type":"Point","coordinates":[-51.228044,-30.03555]},"properties":{"stop_id":"5413","stop_name":"Borges De Medeiros 1017 ","stop_code":null}},{"type":"Feature","geometry":{"type":"Point","coordinates":[-51.228034,-30.035368]},"properties":{"stop_id":"5412","stop_name":"Borges De Medeiros 993 ","stop_code":null}},{"type":"Feature","geometry":{"type":"Point","coordinates":[-51.228023,-30.035177]},"properties":{"stop_id":"5410","stop_name":"Borges De Medeiros 977 ","stop_code":null}},{"type":"Feature","geometry":{"type":"Point","coordinates":[-51.228724,-30.026777]},"properties":{"stop_id":"5703","stop_name":"Borges De Medeiros  Bombeiros","stop_code":null}},{"type":"Feature","geometry":{"type":"Point","coordinates":[-51.096189,-30.021068]},"properties":{"stop_id":"4775","stop_name":"Antero Simoes 174/164 ","stop_code":null}},{"type":"Feature","geometry":{"type":"Point","coordinates":[-51.098247,-30.019044]},"properties":{"stop_id":"6856","stop_name":"Antonio Severino 826 ","stop_code":null}},{"type":"Feature","geometry":{"type":"Point","coordinates":[-51.22415,-30.026105]},"properties":{"stop_id":"5373","stop_name":"Rui Barbosa  Cpc","stop_code":null}},{"type":"Feature","geometry":{"type":"Point","coordinates":[-51.224225,-30.025888]},"properties":{"stop_id":"5371","stop_name":"Rui Barbosa  Cpc","stop_code":null}},{"type":"Feature","geometry":{"type":"Point","coordinates":[-51.224259,-30.025788]},"properties":{"stop_id":"5370","stop_name":"Rui Barbosa  Cpc","stop_code":null}},{"type":"Feature","geometry":{"type":"Point","coordinates":[-51.225046,-30.026049]},"properties":{"stop_id":"6853","stop_name":"Julio De Castilhos 159 ","stop_code":null}},{"type":"Feature","geometry":{"type":"Point","coordinates":[-51.205496,-30.00468]},"properties":{"stop_id":"3556","stop_name":"Rio Grande Sn ","stop_code":null}},{"type":"Feature","geometry":{"type":"Point","coordinates":[-51.100215,-30.01881]},"properties":{"stop_id":"4766","stop_name":"Antonio Severino 462 ","stop_code":null}},{"type":"Feature","geometry":{"type":"Point","coordinates":[-51.265319,-30.10076]},"properties":{"stop_id":"508","stop_name":"Guaiba 4146 ","stop_code":null}},{"type":"Feature","geometry":{"type":"Point","coordinates":[-51.186469,-29.986331]},"properties":{"stop_id":"6852","stop_name":"Ernesto Neugebauer 1050 ","stop_code":null}},{"type":"Feature","geometry":{"type":"Point","coordinates":[-51.228216,-30.037646]},"properties":{"stop_id":"1574","stop_name":"Borges De Medeiros Df 1210 Ef Caixa Econômica","stop_code":null}},{"type":"Feature","geometry":{"type":"Point","coordinates":[-51.207603,-30.117712]},"properties":{"stop_id":"1137","stop_name":"Monte Cristo Df 38 ","stop_code":null}},{"type":"Feature","geometry":{"type":"Point","coordinates":[-51.124901,-29.980815]},"properties":{"stop_id":"6557","stop_name":"Souza Melo Df 1053 ","stop_code":null}},{"type":"Feature","geometry":{"type":"Point","coordinates":[-51.224052,-30.031105]},"properties":{"stop_id":"5329","stop_name":"Joao Pessoa 312 Escadaria Da Sta Casa","stop_code":null}},{"type":"Feature","geometry":{"type":"Point","coordinates":[-51.219989,-30.122503]},"properties":{"stop_id":"727","stop_name":"Monte Cristo 1018 ","stop_code":null}},{"type":"Feature","geometry":{"type":"Point","coordinates":[-51.202521,-30.060236]},"properties":{"stop_id":"1830","stop_name":"Padre Antonio Vieira 202 ","stop_code":null}},{"type":"Feature","geometry":{"type":"Point","coordinates":[-51.24486,-30.094863]},"properties":{"stop_id":"829","stop_name":"Icarai 1719 Tumelero","stop_code":null}},{"type":"Feature","geometry":{"type":"Point","coordinates":[-51.154775,-30.059303]},"properties":{"stop_id":"2807","stop_name":"Capitao Pedro Werlang 498 ","stop_code":null}},{"type":"Feature","geometry":{"type":"Point","coordinates":[-51.153509,-30.019489]},"properties":{"stop_id":"3136","stop_name":"Dr Joao Simplicio A De Carvalho Df 142 Praça","stop_code":null}},{"type":"Feature","geometry":{"type":"Point","coordinates":[-51.167855,-30.058719]},"properties":{"stop_id":"6851","stop_name":"Cubanos 137 ","stop_code":null}},{"type":"Feature","geometry":{"type":"Point","coordinates":[-51.147263,-30.165874]},"properties":{"stop_id":"5971","stop_name":"Capitao Pedroso 560 ","stop_code":null}},{"type":"Feature","geometry":{"type":"Point","coordinates":[-51.234111,-30.08686]},"properties":{"stop_id":"885","stop_name":"Comandai 251 Igreja Universal","stop_code":null}},{"type":"Feature","geometry":{"type":"Point","coordinates":[-51.160419,-29.987181]},"properties":{"stop_id":"6850","stop_name":"Severo Dullius 521 ","stop_code":null}},{"type":"Feature","geometry":{"type":"Point","coordinates":[-51.095566,-29.991187]},"properties":{"stop_id":"4992","stop_name":"Maias 686 ","stop_code":null}},{"type":"Feature","geometry":{"type":"Point","coordinates":[-51.18387,-30.0667]},"properties":{"stop_id":"6192","stop_name":"Veiga 284 ","stop_code":null}},{"type":"Feature","geometry":{"type":"Point","coordinates":[-51.101859,-30.138774]},"properties":{"stop_id":"4481","stop_name":"Joao Antonio Silveira Al 6015 ","stop_code":null}},{"type":"Feature","geometry":{"type":"Point","coordinates":[-51.248801,-30.102077]},"properties":{"stop_id":"762","stop_name":"Dr Castro De Menezes 730/736 ","stop_code":null}},{"type":"Feature","geometry":{"type":"Point","coordinates":[-51.201433,-30.080054]},"properties":{"stop_id":"1739","stop_name":"Prof Carvalho Freitas 1078 ","stop_code":null}},{"type":"Feature","geometry":{"type":"Point","coordinates":[-51.098113,-30.024704]},"properties":{"stop_id":"6848","stop_name":"Afonso Moacir Cerioli Al 70 ","stop_code":null}},{"type":"Feature","geometry":{"type":"Point","coordinates":[-51.246901,-30.078583]},"properties":{"stop_id":"6847","stop_name":"Padre Cacique Ef Shop. Pontal ","stop_code":null}},{"type":"Feature","geometry":{"type":"Point","coordinates":[-51.115052,-30.020816]},"properties":{"stop_id":"6846","stop_name":"Dezessete Jardim Dona Leopoldina Ii Df 115 ","stop_code":null}},{"type":"Feature","geometry":{"type":"Point","coordinates":[-51.207752,-30.007248]},"properties":{"stop_id":"6849","stop_name":"Polonia Df 50 ","stop_code":null}},{"type":"Feature","geometry":{"type":"Point","coordinates":[-51.208177,-30.007117]},"properties":{"stop_id":"6057","stop_name":"Polonia Df 50 Ferramentas Gerais","stop_code":null}},{"type":"Feature","geometry":{"type":"Point","coordinates":[-51.22202,-30.03496]},"properties":{"stop_id":"1624","stop_name":"Loureiro Da Silva 2001 Edel Trade Center","stop_code":null}},{"type":"Feature","geometry":{"type":"Point","coordinates":[-51.182948,-30.016996]},"properties":{"stop_id":"2936","stop_name":"Cristovao Colombo Al 3719 ","stop_code":null}},{"type":"Feature","geometry":{"type":"Point","coordinates":[-51.178912,-30.018025]},"properties":{"stop_id":"2948","stop_name":"Cristovao Colombo Al 4105 Praca Do Skate","stop_code":null}},{"type":"Feature","geometry":{"type":"Point","coordinates":[-51.236374,-30.037286]},"properties":{"stop_id":"1511","stop_name":"Loureiro Da Silva 515 Ministerio Da Fazenda","stop_code":null}},{"type":"Feature","geometry":{"type":"Point","coordinates":[-51.22904,-30.027498]},"properties":{"stop_id":"5208","stop_name":"Uruguai  Pmpa","stop_code":null}},{"type":"Feature","geometry":{"type":"Point","coordinates":[-51.10664,-30.214808]},"properties":{"stop_id":"6625","stop_name":"Edgar Pires De Castro Al 11757 ","stop_code":null}},{"type":"Feature","geometry":{"type":"Point","coordinates":[-51.181364,-30.016958]},"properties":{"stop_id":"2938","stop_name":"Cristovao Colombo 3835 ","stop_code":null}},{"type":"Feature","geometry":{"type":"Point","coordinates":[-51.093099,-29.995658]},"properties":{"stop_id":"5006","stop_name":"Ovidio Chaves Df 410 Esq.amalia Iracema","stop_code":null}},{"type":"Feature","geometry":{"type":"Point","coordinates":[-51.092695,-29.995754]},"properties":{"stop_id":"5005","stop_name":"Ovidio Chaves Sn ","stop_code":null}},{"type":"Feature","geometry":{"type":"Point","coordinates":[-51.09755,-30.023922]},"properties":{"stop_id":"4772","stop_name":"Irmaos Maristas Df 01 ","stop_code":null}},{"type":"Feature","geometry":{"type":"Point","coordinates":[-51.243983,-30.076565]},"properties":{"stop_id":"5458","stop_name":"Padre Cacique Df 1804 Museu Ibere Camargo","stop_code":null}},{"type":"Feature","geometry":{"type":"Point","coordinates":[-51.199722,-30.00467]},"properties":{"stop_id":"6138","stop_name":"Cairu Sn Box 7","stop_code":null}},{"type":"Feature","geometry":{"type":"Point","coordinates":[-51.202297,-30.050258]},"properties":{"stop_id":"1856","stop_name":"Monsenhor Veras Df 320 ","stop_code":null}},{"type":"Feature","geometry":{"type":"Point","coordinates":[-51.20852,-30.007011]},"properties":{"stop_id":"6056","stop_name":"Polonia Df 50 Ferramentas Gerais","stop_code":null}},{"type":"Feature","geometry":{"type":"Point","coordinates":[-51.176729,-30.21043]},"properties":{"stop_id":"5897","stop_name":"Eustaquio Inacio Da Silveira 300 Colégio","stop_code":null}},{"type":"Feature","geometry":{"type":"Point","coordinates":[-51.190399,-30.211864]},"properties":{"stop_id":"5896","stop_name":"Beira Rio Df Pç. Praça Inacio Martins Da Silva","stop_code":null}},{"type":"Feature","geometry":{"type":"Point","coordinates":[-51.176603,-30.210461]},"properties":{"stop_id":"188","stop_name":"Eustaquio Inacio Da Silveira 291 Escola Estadual Glicério Alves","stop_code":null}},{"type":"Feature","geometry":{"type":"Point","coordinates":[-51.189411,-30.211078]},"properties":{"stop_id":"6069","stop_name":"Beira Rio 315 ","stop_code":null}},{"type":"Feature","geometry":{"type":"Point","coordinates":[-51.20682,-30.059421]},"properties":{"stop_id":"1814","stop_name":"Moyses Antunes Da Cunha Df 105 Fundos Condominio","stop_code":null}},{"type":"Feature","geometry":{"type":"Point","coordinates":[-51.186117,-29.98012]},"properties":{"stop_id":"6503","stop_name":"Dr Caio Brandao De Mello Df Emef Ver Anto ","stop_code":null}},{"type":"Feature","geometry":{"type":"Point","coordinates":[-51.134166,-30.151334]},"properties":{"stop_id":"482","stop_name":"Joao Antonio Silveira Df 2531 Bombeiros - Caixa Da Agua","stop_code":null}},{"type":"Feature","geometry":{"type":"Point","coordinates":[-51.10583,-30.041529]},"properties":{"stop_id":"6844","stop_name":"Egidio Piccoli 4 ","stop_code":null}},{"type":"Feature","geometry":{"type":"Point","coordinates":[-51.14659,-30.025328]},"properties":{"stop_id":"6843","stop_name":"Benno Mentz Al 1607 ","stop_code":null}},{"type":"Feature","geometry":{"type":"Point","coordinates":[-51.14669,-30.024729]},"properties":{"stop_id":"3336","stop_name":"Benno Mentz Df 1560 Praça Cabrália","stop_code":null}},{"type":"Feature","geometry":{"type":"Point","coordinates":[-51.206425,-30.117425]},"properties":{"stop_id":"1141","stop_name":"Rodrigues Da Fonseca 2014 ","stop_code":null}},{"type":"Feature","geometry":{"type":"Point","coordinates":[-51.1433,-30.029935]},"properties":{"stop_id":"6396","stop_name":"Alberto Pasqualini 398 ","stop_code":null}},{"type":"Feature","geometry":{"type":"Point","coordinates":[-51.143546,-30.02882]},"properties":{"stop_id":"3325","stop_name":"Guadalajara Df 155 Campo De Futebol","stop_code":null}},{"type":"Feature","geometry":{"type":"Point","coordinates":[-51.123756,-29.993662]},"properties":{"stop_id":"4241","stop_name":"Francisco Silveira Bitencourt 565 Ecovile","stop_code":null}},{"type":"Feature","geometry":{"type":"Point","coordinates":[-51.198299,-30.084182]},"properties":{"stop_id":"1286","stop_name":"Eng Ludolfo Boehl 1523 ","stop_code":null}},{"type":"Feature","geometry":{"type":"Point","coordinates":[-51.15164,-29.998877]},"properties":{"stop_id":"3963","stop_name":"Panamericana Df 1190 ","stop_code":null}},{"type":"Feature","geometry":{"type":"Point","coordinates":[-51.181494,-30.019628]},"properties":{"stop_id":"6842","stop_name":"Cel Feijo Df 1217 ","stop_code":null}},{"type":"Feature","geometry":{"type":"Point","coordinates":[-51.181587,-30.016097]},"properties":{"stop_id":"6841","stop_name":"Cel Feijo 830 ","stop_code":null}},{"type":"Feature","geometry":{"type":"Point","coordinates":[-51.181645,-30.013416]},"properties":{"stop_id":"6840","stop_name":"Cel Feijo 534 ","stop_code":null}},{"type":"Feature","geometry":{"type":"Point","coordinates":[-51.178787,-30.013204]},"properties":{"stop_id":"6839","stop_name":"Ari Marinho Ef Cemiterio ","stop_code":null}},{"type":"Feature","geometry":{"type":"Point","coordinates":[-51.162936,-30.06027]},"properties":{"stop_id":"5887","stop_name":"Oswaldo Pereira De Freitas 175 ","stop_code":null}},{"type":"Feature","geometry":{"type":"Point","coordinates":[-51.150196,-30.0662]},"properties":{"stop_id":"3144","stop_name":"Bento Goncalves 6670 ","stop_code":null}},